name,website,email,phone,bio,city,state,lat,lon,source
Sistersville General Hospital,https://www.sistersvillehospital.com/,,+1 304 652 2611,,Sistersville,,39.5586659,-81.0040005,OpenStreetMap (Overpass)
John Manchin Senior Health Care Center,https://dhhr.wv.gov/officeofhealthfacilities/Pages/John-Manchin-Sr.-Health-Care-Center.aspx,,+1 304 363 2500,West Virginia Department of Health & Human Resources,Fairmont,,39.4814545,-80.134456,OpenStreetMap (Overpass)
McLeod Dillon,https://www.mcleodhealth.org/mcleod-dillon/mcleod-health-dillon-has-a-strong-history-in-the-dillon-community.html,,+1 843 774 4111,,Dillon,SC,34.4213706,-79.3649225,OpenStreetMap (Overpass)
MUSC Health Rehabilitation Hospital,https://healthsouthcharleston.com/,,+1 843 820 7777,,Charleston,,32.9758,-80.0699,OpenStreetMap (Overpass)
MUSC Health Medical Center,https://www.muschealth.org,,+1-843-792-1414,Medical University of South Carolina,Charleston,SC,32.7846371,-79.9473218,OpenStreetMap (Overpass)
CarePartners Rehabilitation Hospital,http://www.carepartners.org/services_rehab_reh.html,,+1 828 274 6151,,Asheville,,35.5620193,-82.5314618,OpenStreetMap (Overpass)
Rutherford Regional Health System,https://www.myrutherfordregional.com/,,+1 828 286 5000,,Rutherfordton,,35.3626207,-81.9656609,OpenStreetMap (Overpass)
Beacham Memorial Hospital,https://beachammemorial.org/,,+1 601 783 2351,,Magnolia,,31.1458865,-90.4596768,OpenStreetMap (Overpass)
Lafayette Behavioral Health Unit,https://www.lafayettegeneral.com/our_facilities/professional_centers/lafayette_behavioral_health_unit.aspx,,,Lafayette General Health,Lafayette,,30.2202,-92.05679,OpenStreetMap (Overpass)
United Medical Rehabilitation Hospitals,https://umrhospital.com/locations/new-orleans/,,+1 504 433 5535,,Gretna,,29.8659914,-90.0301286,OpenStreetMap (Overpass)
Bainbridge Probation Substance Abuse Treatment Center,http://www.dcor.state.ga.us/Facilities/bainbridge-sub-abus-center,,+1 229 248 2416,,Bainbridge,,30.9826866,-84.6343607,OpenStreetMap (Overpass)
South Florida State Hospital,http://www.correctcarers.com/sfsh/,,+1 954 392 3000,Correct Care,Pembroke Pines,,26.002834,-80.2507295,OpenStreetMap (Overpass)
Kindred Hospital - North Florida,http://www.khnorthflorida.com/,,+1 904 284 9230,Kindred Healthcare,Green Cove Springs,,29.9877882,-81.6824678,OpenStreetMap (Overpass)
Douglas Gardens Hospital,https://miamijewishhealthsystems.org/healthcare-services-programs/hospital/,,+1 305 762 1500,,Miami,,25.8237323,-80.19296,OpenStreetMap (Overpass)
Brooks Rehabilitation Hospital,https://www.brooksrehab.org/inpatient-rehabilitation/rehabilitation-hospital/,,+1 904 345 7600,,Jacksonville,,30.2902563,-81.6011984,OpenStreetMap (Overpass)
West Florida Community Care Center,https://www.elakeviewcenter.org/MentalHealth/Adult/Inpatient-WFCCC.aspx,,+1 850 983 5500,Baptist Health Care,Milton,,30.6344247,-87.0423559,OpenStreetMap (Overpass)
The Vines Hospital,https://www.thevineshospital.com/,,+1 866 671 3130,,Ocala,,29.155548,-82.1705238,OpenStreetMap (Overpass)
CPC Beverly Hills,https://www.citrusmh.com/location/cpc-beverly-hills,,+1 352 527 6646,HCA,Beverly Hills,FL,28.9097874,-82.4421641,OpenStreetMap (Overpass)
The Jerome Golden Center for Behavioral Health,http://goldenctr.org/,,+1 561 383 8000,,West Palm Beach,,26.754231,-80.0673117,OpenStreetMap (Overpass)
Specialty Hospital Jacksonville,https://specialtyhospitaljax.com/,,+1 904 737 3120,HCA South Atlantic,Jacksonville,,30.27148,-81.61587,OpenStreetMap (Overpass)
AdventHealth Cancer Institute,https://www.floridahospitalcancer.com/,,+1 407 303 1700,AdventHealth,Orlando,,28.5753182,-81.3724209,OpenStreetMap (Overpass)
Saint Catherine's Rehabilitation Hospital,https://www.catholichealthservices.org/st-catherines-rehab/,,+1 305 357 1735,,North Miami,FL,25.889921,-80.177,OpenStreetMap (Overpass)
Stephens County Hospital,https://stephenscountyhospital.com/,,+1-706-282-4200,,Toccoa,GA,34.5929972,-83.3480355,OpenStreetMap (Overpass)
Willingway,https://willingway.com/,,+1 888 979 2140,,Statesboro,,32.4443446,-81.7576111,OpenStreetMap (Overpass)
Central State Hospital,https://dbhdd.georgia.gov/central-state-hospital-milledgeville,,+1 478 445 4128,,Milledgeville,,33.046533,-83.2173762,OpenStreetMap (Overpass)
East Central Regional Hospital,https://dbhdd.georgia.gov/east-central-regional-hospital-augusta-gracewood,,+1 706 790 2011,,Augusta,,33.395695,-82.0115058,OpenStreetMap (Overpass)
Lighthouse Care Center of Augusta,https://www.lighthousecarecenters.com/,,+1 706 651 0005,,Augusta,,33.4905438,-82.0874985,OpenStreetMap (Overpass)
Eisenhower Army Medical Center,http://eisenhower.amedd.army.mil/,,+1 706 787 5811,,Fort Eisenhower,GA,33.4303378,-82.125856,OpenStreetMap (Overpass)
Ridgeview Institute - Smyrna,https://www.ridgeviewinstitute.com/,,+1 770 434 4567,Ridgeview Institute,Smyrna,,33.8579171,-84.5130825,OpenStreetMap (Overpass)
Georgia Regional Hospital Atlanta,https://dbhdd.georgia.gov/georgia-regional-hospital-atlanta,,+1 404 243 2100,Georgie Department of Behavioral Health and Developmental Disabilities,Decatur,,33.696701,-84.2765161,OpenStreetMap (Overpass)
Mountain View Hospital,https://www.mtnviewhospital.com/,,+1 800 245 3645,,Gadsden,,34.0725154,-86.0196571,OpenStreetMap (Overpass)
The Haven,https://www.spectracare.org/,,,SpectraCare Health Systems,Dothan,,31.2462233,-85.4612609,OpenStreetMap (Overpass)
Florida Corrections Medical Center,http://www.dc.state.fl.us/facilities/region2/209.html,,+1 386 496 6000,,Lake Butler,FL,29.98852,-82.3582095,OpenStreetMap (Overpass)
Wilmington Treatment Center,https://www.wilmingtontreatment.com/,,+1 910 758 2023,,Wilmington,NC,34.194225,-77.92946,OpenStreetMap (Overpass)
Bert Martin's Champions for Children Emergency Department & Trauma Center,https://www.arnoldpalmerhospital.com/about-us/pediatric-ed-and-level-one-trauma-center,,+1 321 841 5437,Orlando Health,Orlando,,28.523603,-81.379675,OpenStreetMap (Overpass)
Haywood Regional Medical Center,https://www.myhaywoodregional.com/,,+1 828 456 7311,Duke Lifepoint,Clyde,,35.5252312,-82.9427378,OpenStreetMap (Overpass)
Old Vineyard Behavioral Health Services,https://oldvineyardbhs.com/,,+1 336 794-3550,,Winston-Salem,NC,36.0783236,-80.3185501,OpenStreetMap (Overpass)
Rex Healthcare of Wakfield,https://www.rexhealth.com/rh/hospitals-locations/profile/?id=277,,+1 919 570 7500,,Raleigh,NC,35.9475673,-78.5412297,OpenStreetMap (Overpass)
UF Health Shands Psychiatric Hospital,https://ufhealth.org/shands-vista,,,UF Health,Gainesville,,29.6917937,-82.4361118,OpenStreetMap (Overpass)
Regional Rehabilitation Hospital,https://encompasshealth.com/locations/regionalrehab,,+1 334 732 2200,,Phenix City,,32.4988254,-85.0463859,OpenStreetMap (Overpass)
Saint Charles Surgical Hospital,https://www.scsh.com/,,+1 504 529 6600,,New Orleans,,29.9373014,-90.0771038,OpenStreetMap (Overpass)
Florida Medical Plaza North Tower,http://www.flhosplab.com/location/orlando-florida-hospital-medical-plaza/,,,AdventHealth,Orlando,FL,28.574905,-81.3719126,OpenStreetMap (Overpass)
Specialty Rehabilitation Hospital,https://www.specialtyrehabhospital.com,,,,Coushatta,LA,32.0290256,-93.3402657,OpenStreetMap (Overpass)
Golisano Children's Hospital of Southwest Florida,https://www.leehealth.org/childrens-health/index.asp,,+1 239 343 5437,Lee Health,Fort Myers,,26.5070753,-81.9119717,OpenStreetMap (Overpass)
Cherry Hospital,https://www.ncdhhs.gov/divisions/dsohf/cherry-hospital,,+1 919 947 7000,,Goldsboro,NC,35.3947777,-78.0201427,OpenStreetMap (Overpass)
Florida Department of Health in Pasco County,https://floridahealth.gov/,,,Pasco County,Hudson,FL,28.3904554,-82.6245256,OpenStreetMap (Overpass)
Eunice Extended Care Hospital,https://lhcgroup.com/locations/eunice-extended-care-hospital,,+1 337 546 0024,LHC Group,Eunice,,30.4964237,-92.3746825,OpenStreetMap (Overpass)
Compass Behavioral Center of Opelousas,https://compasshealthcare.com/site187.php,,+1 337 948 2334,Compass Health,Opelousas,,30.4719122,-92.0793803,OpenStreetMap (Overpass)
Turning Point,https://turningpointcare.com/,,+1 229 985 4815,,Moultrie,GA,31.1277384,-83.7701229,OpenStreetMap (Overpass)
Baptist Children's Hospital,https://baptisthealth.net/locations/hospitals/baptist-childrens-hospital,,+1 786-596-1960,Baptist Health South Florida,Miami,FL,25.684005,-80.3382285,OpenStreetMap (Overpass)
The Rehabilitation Hospital,https://www.leehealth.org/rehabilitation-hospital/,,+1 239 343 3900,Lee Health,Fort Myers,,26.6282139,-81.8740593,OpenStreetMap (Overpass)
LifeCare Hospitals of Shreveport,https://www.lifecarehealthpartners.com/region/shreveport,,+1 318 212 3200,LifeCare Health Partners,Shreveport,,32.4320838,-93.709023,OpenStreetMap (Overpass)
Park Place Surgical Hospital,https://www.parkplacesurgery.com/,,+1 337 237 8119,,Lafayette,,30.1493951,-92.0363792,OpenStreetMap (Overpass)
The NeuroMedical Center Rehabilitation Hospital,https://www.theneuromedicalcenter.com/rehabilitation-hospital/,,+1 225 769 2200,,Baton Rouge,,30.3800116,-91.0943788,OpenStreetMap (Overpass)
Lafayette General Surgical Hospital,https://www.lafayettegeneral.com/our_facilities/main_facilities/lafayette_general_surgical_hospital.aspx,,+1 337 289 8095,,Lafayette,,30.2039033,-92.0147762,OpenStreetMap (Overpass)
Coral Gables Acupuncture,https://miamiacupuncture.com,,,"At Coral Gables Acupuncture, we provide comprehensive acupuncture treatment options for various forms of disorders and pain.",Miami,FL,25.742333,-80.2540819,OpenStreetMap (Overpass)
Miami Beach Urgent Care,https://miamibeachurgentcare.com,info@miamibeachurgentcare.com,+1-305-344-2273,"On-site lab, X-ray, IV, physicals, other health care services",Miami Beach,FL,25.7845261,-80.1406461,OpenStreetMap (Overpass)
AdventHealth Orlando Emergency Room,https://adventhealth.com,,+1-407-303-1940,AdventHealth,Orlando,FL,28.5735429,-81.3692095,OpenStreetMap (Overpass)
Sandhills Medical Foundation,https://sandhillsmedical.org/locations/mcbee/,,+1-843-335-8291,,McBee,SC,34.4597459,-80.2594535,OpenStreetMap (Overpass)
John B. Amos Cancer Center,https://www.piedmont.org/columbus,,+1-706-320-8700,The area's only free-standing cancer center.,Columbus,GA,32.4812792,-84.9867742,OpenStreetMap (Overpass)
UAB Freestanding ER,https://www.uabmedicine.org/gardendale-fed,,+1-205-263-0952,,Gardendale,AL,33.6489968,-86.8192056,OpenStreetMap (Overpass)
Back and Neck Pain Center,https://www.drvenis.com/,,+1-727-726-4743,"The Back and Neck Pain Center and Dr Monte Venis,Chiropractic Physician has over 30 years experience in Clearwater to help you live your life without pain. We help relieve various pain conditions such as back pain, neck pain, shoulder pain, headaches.",Clearwater,FL,28.0207387,-82.7113717,OpenStreetMap (Overpass)
Ochsner Rehabilitation Hospital,https://www.ochsner-rehab.com,,+1 504 291 5100,,Jefferson,,29.961469,-90.1540213,OpenStreetMap (Overpass)
Veritas Collaborative Eating Disorder Treatment Center,https://veritascollaborative.com/locations/north-carolina/durham-nc-adult-eating-disorder-treatment-center,,+1 919 908 9730,,Durham,,36.0099404,-78.9423254,OpenStreetMap (Overpass)
Wheeling Hospital,https://www.wheelinghospital.org,,+1 304 243 3000,,Wheeling,,40.0591186,-80.6850073,OpenStreetMap (Overpass)
Carolina Dunes Behavioral Health,https://sbcwilmington.com,,+1 910 371 2500,,Leland,,34.2607578,-78.0637137,OpenStreetMap (Overpass)
Novant Health Rehabilitation Hospital,https://www.encompasshealth.com/locations/novanthealthrehab,,+1 336 754 3500,,Winston-Salem,,36.0511396,-80.3269699,OpenStreetMap (Overpass)
Rebound Behavioral Health,https://www.reboundbehavioralhealth.com,,+1 803 313 3700,,Lancaster,,34.8620695,-80.802395,OpenStreetMap (Overpass)
William S Hall Psychiatric Institute,https://www.state.sc.us/dmh/profiles/hall.pdf,,+1 803 898 1593,,Columbia,,34.0792534,-80.9804777,OpenStreetMap (Overpass)
Vibra Hospital Of Charleston,https://vhcharleston.com,,+1 843 375 4100,,Mount Pleasant,,32.8149016,-79.8557164,OpenStreetMap (Overpass)
Turbeville Correctional Institution Infirmary,https://www.doc.sc.gov/institutions/turbeville.jsp,,+1 803 896 3100,,Turbeville,,33.8878019,-80.0812248,OpenStreetMap (Overpass)
Encompass Health Rehabilitation Hospital Of Bluffton,https://www.encompasshealth.com/hiltonheadrehab,,+1 843 836 8200,,Bluffton,,32.2857407,-80.9404858,OpenStreetMap (Overpass)
20th Medical Group,https://shaw.tricare.mil,,+1 803 895 2273,,Shaw Afb,,33.9708044,-80.4889839,OpenStreetMap (Overpass)
South Carolina Vocational Rehabilitation Evaluation Center,https://scvrd.net,,+1 803 896 6040,,West Columbia,,33.9518687,-81.1078839,OpenStreetMap (Overpass)
William J Mccord Adolescent Treatment Facility,https://www.tccada.com/adolescent-inpatient-services,,+1 803 534 4900,,Orangeburg,,33.5358708,-80.8222063,OpenStreetMap (Overpass)
Bradley Center Of Saint Francis,https://www.mystfrancis.com/behavioral-mental-health-care,,+1 706 320 3700,,Columbus,,32.4826966,-84.9681111,OpenStreetMap (Overpass)
South Georgia Outpatient Plaza,https://www.sgmc.org/venue/sgmc-smith-northview,,+1 229 433 1000,South Georgia Medical Center,Valdosta,,30.8986369,-83.3355585,OpenStreetMap (Overpass)
East Central Regional Hospital - Gracewood,https://dbhdd.georgia.gov/be-caring/east-central-regional-hospital-ecrh-augusta-and-gracewood-ga,,,,North View,,33.3689708,-82.0296438,OpenStreetMap (Overpass)
Veritas Collaborative Eating Disorder Treatment Center,https://veritascollaborative.com/locations/georgia/atlanta-ga-eating-disorder-treatment-center,,+1 770 871 3750,,Atlanta,,33.9242095,-84.3312515,OpenStreetMap (Overpass)
Emory Wesley Woods Hospital,https://www.emoryhealthcare.org/locations/hospitals/emory-university-hospital-wesley-woods,,,,Atlanta,,33.804819,-84.331172,OpenStreetMap (Overpass)
Select Specialty Hospital - Midtown Atlanta,https://www.selectspecialtyhospitals.com/locations-and-tours/ga/atlanta/midtown-atlanta,,+1 404 873 2871,,Atlanta,,33.7737772,-84.3827544,OpenStreetMap (Overpass)
Southwell Medical,https://mysouthwell.com/southwell-medical-adel,,+1 229 896 8077,,Adel,,31.1081989,-83.4273729,OpenStreetMap (Overpass)
Roosevelt Warm Springs LTAC Hospital,https://www.rooseveltrecovery.com,,+1 706 655 5515,,Warm Springs,GA,32.8879807,-84.6923449,OpenStreetMap (Overpass)
Morgan Medical Center,https://morganmedical.org,,+1 706 342 1667,,Madison,,33.5688456,-83.472006,OpenStreetMap (Overpass)
Lakeview Behavioral Health System,https://www.lakeviewbehavioralhealth.com,,+1 678 713 2600,,Norcross,,33.9569129,-84.2181357,OpenStreetMap (Overpass)
Greenleaf Center,https://www.greenleafhospital.com,,+1 229 671 6601,,Valdosta,,30.8601574,-83.2591332,OpenStreetMap (Overpass)
Arnold Palmer Hospital For Children,https://arnoldpalmerhospital.com,,+1 321 841 6350,,Lake Mary,FL,28.7699806,-81.3487449,OpenStreetMap (Overpass)
New Horizons Of Treasure Coast - Mental Health Center,https://nhtcinc.org,,+1 772 468 5600,,Fort Pierce,FL,27.3759497,-80.3714153,OpenStreetMap (Overpass)
The Renfrew Center Of Florida,https://www.renfrewcenter.com/locations/coconut-creek.asp,,+1 954 698 9222,,Coconut Creek,FL,26.3273083,-80.1888076,OpenStreetMap (Overpass)
Saint Anthony's Rehabilitation Hospital,https://www.catholichealthservices.org/location/st-anthonys-rehabilitation-hospital,,+1 954 739 6233,,Lauderdale Lakes,FL,26.1636604,-80.1935019,OpenStreetMap (Overpass)
The Centers,https://www.thecenters.us,,+1 352 291 5500,,Ocala,FL,29.1310658,-82.2190209,OpenStreetMap (Overpass)
Consulate Health Care Of Pensacola,https://consulatehc.com,,+1 850 857 5200,,Pensacola,FL,30.4714433,-87.2526172,OpenStreetMap (Overpass)
Wekiva Springs,https://wekivacenter.com,,+1 904 296 3533,,Jacksonville,FL,30.2580283,-81.595717,OpenStreetMap (Overpass)
Palm Point Behavioral Health,https://www.palmpointbehavioral.com,,+1 321 603 6550,,Titusville,FL,28.640354,-80.8300075,OpenStreetMap (Overpass)
Select Specialty Hospital - Fort Myers,https://www.fortmyers.selectspecialtyhospitals.com,,+1 239 313 2900,,Fort Myers,FL,26.6304105,-81.8029506,OpenStreetMap (Overpass)
Winter Haven Women's Hospital,https://baycare.org/hospitals/winter-haven-womens-hospital/patients-visitors,,+1 863 294 7010,,Winter Haven,FL,28.0089757,-81.7261779,OpenStreetMap (Overpass)
The Willough At Naples,https://www.thewilloughatnaples.com,,+1 239 775 4500,,Naples,FL,26.0960285,-81.7363098,OpenStreetMap (Overpass)
Select Specialty Hospital - Palm Beach,https://palmbeach.selectspecialtyhospitals.com,,+1 561 357 7370,Select Specialty Hospital,Lake Worth,FL,26.6090441,-80.09145,OpenStreetMap (Overpass)
Encompass Health Rehabilitation Hospital Of Ocala,https://encompasshealth.com/ocalarehab,,+1 352 282 4000,,Ocala,FL,29.1658755,-82.1623349,OpenStreetMap (Overpass)
UCF Lake Nona Medical Center,https://ucflakenonamedicalcenter.com,,+1 407 302 7392,,Orlando,FL,28.3674088,-81.28563,OpenStreetMap (Overpass)
Saint Josephs Hospital Behavioral Health Center,https://baycare.org/locations/s/st-josephs-hospital-behavioral-health-center,,+1 813 870 4000,,Tampa,FL,27.99168,-82.4898185,OpenStreetMap (Overpass)
Saint Catherine's West Rehabilitation Hospital,https://www.catholichealthservices.org/location/st-catherines-west-rehabilitation-hospital,,+1 305 351 7181,,Hialeah Gardens,FL,25.8837555,-80.3429732,OpenStreetMap (Overpass)
Southern Winds,https://southernwindshospital.com,,+1 305 558 9700,,Hialeah,FL,25.860337,-80.3215341,OpenStreetMap (Overpass)
Halifax Health UF Health Medical Center Of Deltona,https://halifaxhealth.org,,+1 386 425 4806,,Deltona,FL,28.9575788,-81.2548449,OpenStreetMap (Overpass)
Encompass Health Rehabilitation Hospital Of Spring Hill,https://encompasshealth.com/springhillrehab,,+1 352 592 4250,,Brooksville,FL,28.5322636,-82.5169605,OpenStreetMap (Overpass)
Lifestream Behavioral Center,https://www.lsbc.net,,+1 352 315 7800,,Leesburg,FL,28.8369041,-81.895483,OpenStreetMap (Overpass)
Blackberry Center,https://www.blackberrycenter.com,,+1 321 805 5090,,Saint Cloud,FL,28.260087,-81.314139,OpenStreetMap (Overpass)
Encompass Health Rehabilitation Hospital Of North Tampa,https://encompasshealth.com/northtamparehab,,+1 813 607 3600,Encompass Health,Lutz,FL,28.1313483,-82.5002765,OpenStreetMap (Overpass)
Adventhealth Apopka,https://www.adventhealth.com/hospital/adventhealth-apopka,,+1 407 609 7000,AdventHealth,Apopka,FL,28.6492298,-81.5402729,OpenStreetMap (Overpass)
Devereux Florida,https://www.devereux.org/site/SPageServer/?pagename=fl_viera_campus,,+1 321 242 9100,,Viera,FL,28.2341414,-80.7082214,OpenStreetMap (Overpass)
Encompass Health Rehabilitation Hospital Of Pensacola,https://encompasshealth.com/pensacolarehab,,+1 850 805 2000,,Pensacola,FL,30.4723825,-87.2027127,OpenStreetMap (Overpass)
Encompass Health Rehabilitation Hospital Of Altamonte Springs,https://encompasshealth.com/altamontespringsrehab,,+1 407 587 8600,,Altamonte Springs,FL,28.6461705,-81.4131395,OpenStreetMap (Overpass)
325th Medical Group,https://tyndall.tricare.mil,,,,Tyndall Afb,FL,30.071384,-85.6028464,OpenStreetMap (Overpass)
Noland Hospital Birmingham East,https://nolandhospitals.com,,+1 205 838 5100,,Birmingham,AL,33.4149192,-86.6860221,OpenStreetMap (Overpass)
Huntsville Hospital for Women And Children,https://www.hhwomenandchildren.org,,+1 256 265 8133,,Huntsville,AL,34.7206376,-86.5746174,OpenStreetMap (Overpass)
Unity Psychiatric Care - Huntsville,https://unitypsych.com/huntsville,,+1 256 964 6700,,Huntsville,AL,34.7533135,-86.6652779,OpenStreetMap (Overpass)
Central Alabama VA Medical Center - Montgomery,https://www.va.gov/central-alabama-health-care/locations/central-alabama-va-medical-center-montgomery,,+1 334 272 4670,,Montgomery,,32.3771735,-86.2434556,OpenStreetMap (Overpass)
Encompass Health Lakeshore Rehabilitation Hospital,https://encompasshealth.com/locations/lakeshorerehab,,+1 205 868 2000,,Birmingham,,33.4691159,-86.788335,OpenStreetMap (Overpass)
Community Hospital,http://www.chal.org,,+1 334 283 6541,,Tallassee,,32.5339098,-85.9122466,OpenStreetMap (Overpass)
Encompass Health Rehabilitation Hospital Of Montgomery,https://encompasshealth.com/locations/montgomeryrehab,,+1 334 284 7700,,Montgomery,,32.319107,-86.2807098,OpenStreetMap (Overpass)
Decatur Morgan West,https://decaturmorganhospital.net,,+1 256 973 2000,,Decatur,AL,34.5836823,-87.0254166,OpenStreetMap (Overpass)
Baptist Medical Center East,https://www.baptistfirst.org,,+1 334 747 4410,,Montgomery,,32.3763995,-86.17493,OpenStreetMap (Overpass)
Supportive Care ABA GA,https://supportivecareaba.com/,,+1-317-936-1240,Supportive Care ABA is a dedicated home based agency that helps children achieve enjoyable therapeutic activities in a warm and comfortable environment.,Newnan,GA,33.373251,-84.7986866,OpenStreetMap (Overpass)
Oceans Behavioral Hospital Of Kentwood,https://oceanshealthcare.com/ohc-location/kentwood,,+1 985 229 0717,,Kentwood,LA,30.9375364,-90.5297644,OpenStreetMap (Overpass)
Compass Behavioral Health - Crowley,https://www.compasshealthcare.com/locations/compass-behavioral-center-of-crowley,,+1 337 788 1328,,Crowley,LA,30.2193372,-92.3689428,OpenStreetMap (Overpass)
PAM Health Specialty Hosptial,https://pamhealth.com/facilities/find-facility/specialty-hospitals/pam-health-specialty-hospital-slidell,,,,Slidell,LA,30.2807255,-89.7538789,OpenStreetMap (Overpass)
Regency Hospital Of Covington,https://www.regencyhospital.com,,+1 985 867 3977,,Covington,LA,30.4584345,-90.1350371,OpenStreetMap (Overpass)
Tri Parish Rehabilitation Hospital,https://clearskyhealth.com/rosepine,,+1 337 462 8880,,Leesville,LA,30.9408628,-93.2843921,OpenStreetMap (Overpass)
Lake Charles Memorial Hospital For Women,https://www.lcmh.com/locations/lake-charles-memorial-hospital-for-women,,,,Lake Charles,LA,30.1406178,-93.2470628,OpenStreetMap (Overpass)
Southeast Regional Medical Center,https://ldh.la.gov/index.cfm/directory/detail/1930/catid/169,,,,Kentwood,LA,30.9371286,-90.519247,OpenStreetMap (Overpass)
Trinity Medical,https://www.trinitymed.com,,+1 318 757 0210,,Ferriday,LA,31.6103921,-91.5268614,OpenStreetMap (Overpass)
PAM Specialty Hospital Of Covington,https://pamhealth.com/facilities/find-facility/specialty-hospitals/PAM-Specialty-Hospital-Covington,,+1 985 875 7525,,Covington,LA,30.4474054,-90.0731257,OpenStreetMap (Overpass)
Physicians Behavioral Hospital,https://www.pbhospital.com,,+1 318 550 0520,,Shreveport,LA,32.4722658,-93.7709255,OpenStreetMap (Overpass)
Compass Behavioral Center Of Alexandria,https://www.compasshealthcare.com/locations/compass-behavioral-center-of-alexandria-inpatient,,+1 318 473 0035,,Alexandria,LA,31.2521916,-92.4819878,OpenStreetMap (Overpass)
Red River Behavioral Center,http://redriverbc.com,,+1 318 549 2033,,Bossier City,LA,32.5458842,-93.7045528,OpenStreetMap (Overpass)
Compass Behavioral Center Of Houma,https://www.compasshealthcare.com/locations/compass-behavioral-center-of-houma-2,,+1 985 876 1715,,Houma,LA,29.6648085,-90.771006,OpenStreetMap (Overpass)
Riverside Hospital Of Louisiana,https://www.riversidehospital.net,,+1 318 767 2900,,Alexandria,LA,31.301332,-92.487302,OpenStreetMap (Overpass)
Cornerstone Specialty Hospitals West Monroe,https://www.chghospitals.com/location/cornerstone-specialty-hospitals-west-monroe,,+1 318 396 5600,,West Monroe,LA,32.5160669,-92.2044454,OpenStreetMap (Overpass)
SAGE Rehab Of Lafayette,https://www.thecarpenterhealthnetwork.com,,+1 337 446 4300,,Lafayette,LA,30.1803441,-92.0115764,OpenStreetMap (Overpass)
Seaside Health System,https://www.seasidehc.com,,+1 225 522 4076,,Baton Rouge,LA,30.4496451,-91.1449121,OpenStreetMap (Overpass)
Oceans Behavioral Hospital Of Deridder,https://oceanshealthcare.com/ohc-location/deridder,,+1 337 460 9472,,Deridder,LA,30.8419209,-93.311667,OpenStreetMap (Overpass)
Beacon Behavioral Hospital,https://beaconbh.com,,+1 225 258 6103,,Lutcher,LA,30.0466543,-90.700173,OpenStreetMap (Overpass)
Oceans Behavioral Hospital Of Opelousas,https://oceanshealthcare.com/ohc-location/opelousas,,+1 337 948 8820,,Opelousas,LA,30.5082085,-92.0728687,OpenStreetMap (Overpass)
Oceans Behavioral Hospital Broussard,https://oceanshealthcare.com/ohc-location/broussard/,,+1 337 839 9008,,Broussard,LA,30.1375717,-91.979551,OpenStreetMap (Overpass)
Iberia Rehabilitation Hospital,https://iberiarehab.net,,+1 337 364 6923,,New Iberia,LA,29.9908336,-91.8069414,OpenStreetMap (Overpass)
Regions Behavioral Hospital,https://www.regionsbh.com,,+1 225 408 6060,,Baton Rouge,LA,30.4447976,-91.0975624,OpenStreetMap (Overpass)
Riverbridge Specialty Hospital,https://riverbridgela.com,,+1 318 336 6500,,Vidalia,LA,31.5611749,-91.426067,OpenStreetMap (Overpass)
Northshore Extended Care Hospital,https://lhcgroup.com/locations/northshore-extended-care-hospital,,+1 985 218 4700,,Lacombe,LA,30.3575606,-89.9154395,OpenStreetMap (Overpass)
Compass Behavioral Center Of Lafayette,https://www.compasshealthcare.com/locations/compass-behavioral-center-of-lafayette-inpatient,,+1 337 534 4655,,Lafayette,LA,30.1558322,-91.9921662,OpenStreetMap (Overpass)
Intensive Specialty Hospital - Shreveport Campus,https://intensivespecialty.com,,+1 318 425 4096,,Shreveport,LA,32.4938707,-93.7448806,OpenStreetMap (Overpass)
Avail Hospital Lake Charles,https://www.availhospitals.com,,+1 337 656 7700,,Lake Charles,LA,30.1903784,-93.2503702,OpenStreetMap (Overpass)
Oceans Behavioral Hospital Of Alexandria,https://oceanshealthcare.com/ohc-location/alexandria,,+1 318 448 8473,,Alexandria,LA,31.3236744,-92.4798209,OpenStreetMap (Overpass)
Oceans Behavioral Hospital Of Lake Charles,https://oceanshealthcare.com/ohc-location/lake-charles,,+1 337 474 7581,,Lake Charles,LA,30.1764601,-93.222959,OpenStreetMap (Overpass)
Oceans Behavioral Hospital Of Hammond,https://oceanshealthcare.com/ohc-location/hammond,,+1 985 277 1415,,Hammond,LA,30.4737974,-90.4591273,OpenStreetMap (Overpass)
Mercy Behavioral Hospital,https://www.mercybh.com/,,+1 318 443 4000,,Lecompte,LA,31.0976181,-92.397721,OpenStreetMap (Overpass)
Encompass Health Rehabilitation Hospital Of Shreveport,https://encompasshealth.com/locations/shreveportrehab,,+1 318 642 8100,Encompass Health,Shreveport,LA,32.4262622,-93.7105381,OpenStreetMap (Overpass)
Genesis Behavioral Hospital,https://www.genesisbh.com,,+1 337 442 6254,,Breaux Bridge,LA,30.2933793,-91.9062822,OpenStreetMap (Overpass)
Cypress Grove Behavioral Health,https://cypressgrovehealth.com,,+1 318 281 2448,,Bastrop,LA,32.7809985,-91.9428906,OpenStreetMap (Overpass)
Bogalusa Rehabilitation Hospital,https://www.bogalusarehabilitationhospital.com,,+1 337 254 4535,,Bogalusa,LA,30.771482,-89.8535909,OpenStreetMap (Overpass)
Beacon Behavioral Hospital - Northshore,https://www.beaconbh.com,,+1 985 982 0226,,Lacombe,LA,30.3565113,-89.9160699,OpenStreetMap (Overpass)
Alexandria Emergency Hospital,https://www.alexandriaer.com,,+1 318 386 8110,,Alexandria,LA,31.29658,-92.510247,OpenStreetMap (Overpass)
NMMC Women's Hospital,https://www.nmhs.net/locations/profile/nmmc-womens-hospital/?searchid=a776ec61-218e-ea11-a82c-000d3a61151d&sort=15,,+1 662 377 3000,,Tupelo,MS,34.232067,-88.71687,OpenStreetMap (Overpass)
Diamond Grove Center,https://diamondgrovecenter.com,,+1 662 779 0119,,Louisville,MS,33.0974686,-89.0673112,OpenStreetMap (Overpass)
Choctaw Health Center,https://www.choctawhealthcenter.org,,+1 601 656 2211,,Choctaw,MS,32.7823732,-89.2307519,OpenStreetMap (Overpass)
South Mississippi State Hospital,https://www.smsh.ms.gov,,+1 601 794 0100,,Purvis,MS,31.1666022,-89.4252131,OpenStreetMap (Overpass)
Select Specialty Hospital Jackson,https://www.selectspecialtyhospitals.com/locations-and-tours/ms/jackson/jackson,,+1 601 899 3800,,Jackson,MS,32.38977,-90.1433756,OpenStreetMap (Overpass)
North Mississippi State Hospital,http://www.nmsh.state.ms.us,,+1 662 690 4200,,Tupelo,MS,34.2375489,-88.6717149,OpenStreetMap (Overpass)
United Dental Specialists,https://uniteddentalspecialists.com,info@udsdental.com,+1-305-593-6521,Dental Clinic,Miami Lakes,FL,25.9139935,-80.3323335,OpenStreetMap (Overpass)
AdventHealth Medical Group - South Street,https://www.adventhealthmedicalgroup.com,,+1-407-843-1180,AdventHealth,Orlando,FL,28.5388059,-81.3729968,OpenStreetMap (Overpass)
NL Whole Health Treatment Center In Louisiana,https://nlwholehealth.com/,,+1 318-408-9929,"No recovery journey is the same. North Louisiana Whole Health Treatment Center offers personalized, evidence-based treatments and services delivered by a team of qualified and dedicated professionals.",Shreveport,LA,32.4974045,-93.7454455,OpenStreetMap (Overpass)
Hypnosis By Doctors,https://hypnosisbydoctors.com,,+1-334-233-5610,owner,Montgomery,AL,32.3774575,-86.1709103,OpenStreetMap (Overpass)
Orlando Health Orlando Regional Medical Center Emergency Room,https://orlandohealth.com,,+1-321-841-5210,,Orlando,FL,28.5249903,-81.3771828,OpenStreetMap (Overpass)
HCA Florida Millenia Emergency,https://hcafloridahealthcare.com,,+1-407-393-9800,Emergency care service.,Orlando,FL,28.4913702,-81.4275064,OpenStreetMap (Overpass)
Orlando Health Doctor P. Phillips Hospital,https://menzclinic.com/,,+1-407-606-6450,Orlando Health,Orlando,FL,28.4292293,-81.4788322,OpenStreetMap (Overpass)
Heal Behavioral Health,https://healtreatmentcenters.com/,admissions@healbh.com,+1 561-781-5915,,West Palm Beach,FL,26.7130629,-80.0508322,OpenStreetMap (Overpass)
Park Family & Cosmetic Dentistry,https://myparkdental.com/,,+1-239-263-1151,"Park Family and Cosmetic Dentistry offers comprehensive dental care, including cosmetic dentistry, pediatric dentistry, and emergency dental services.",Naples,FL,26.1561806,-81.7904851,OpenStreetMap (Overpass)
Lice Clinics Rock Hill - LCA York County,https://www.liceremovalyorkcounty.com,,+1 803-868-4733,LCA York County is a professional head lice removal clinic Conveniently located in Rockhill SC. We use an Air Technology that kills lice and nits in one treatment. Our Lice removal technicians are trained to the highest standards and our technique is safe,Rock Hill,SC,34.9737837,-81.0248753,OpenStreetMap (Overpass)
UAB Medical West Freestanding Emergency Dept,https://medicalwesthospital.org/healthcare-services/freestanding-emergency-department/,,+1-205-820-8416,UAB Medical West,Hoover,AL,33.3550565,-86.8558405,OpenStreetMap (Overpass)
Ageless Spa Center,https://www.ageless-spacenter.com/,operations@ageless-spacenter.com,,"Welcome to Ageless Spa Center, your ultimate destination for top-tier med spa treatments in Gainesville, Florida.",Gainesville,FL,29.6889796,-82.3943817,OpenStreetMap (Overpass)
Dermafix Spa,https://dermafixspa.com/,operations@dermafixspa.com,,"Welcome to Dermafix Spa, Sarasota's premier med spa offering luxurious treatments designed to enhance your beauty and wellness effortlessly.",Sarasota,FL,27.2631227,-82.520489,OpenStreetMap (Overpass)
DermaMode Spa,https://dermamodespa.com/,operations@dermamodespa.com,,"Welcome to DermaMode Spa, Tampa's premier med spa offering luxurious treatments to enhance your beauty and wellness.",Tampa,FL,28.0591557,-82.6215096,OpenStreetMap (Overpass)
Bradenton Spa Center,https://bradenton-spacenter.com/,operations@bradenton-spacenter.com,,"Welcome to Bradenton Spa Center, your destination for luxurious med spa treatments in Bradenton, Florida, USA.",Bradenton,FL,27.4802451,-82.619237,OpenStreetMap (Overpass)
Back Pain Treatment Orlando,https://menzclinic.com/back-pain/,,,"We offer back pain treatment near me in Orlando, that will provide you relief from backache. Back pain is a very common problem, and most of us will have it at some time in our lives.",Orlando,FL,28.4297042,-81.4793701,OpenStreetMap (Overpass)
Menz Botox Clinic Orlando,https://menzclinic.com/botox/,info@drjantiagingclinic.com,+1-407-606-6450,,Orlando,FL,28.4294752,-81.4793137,OpenStreetMap (Overpass)
Alabaster Aesthetic Dentistry,https://tedudney.com/,,+1 205-663-6545,"Family oriented dental office for over 45 years, led by Dr. Thomas Dudney and Dr. Luis Abrahante, offers a full range of advanced dental procedures to meet all your dental needs.",Alabaster,AL,33.2509481,-86.8137647,OpenStreetMap (Overpass)
Hope For Tomorrow,https://myhopefortomorrow.com/locations/point-pleasant-wv-main-office/,,+1 304-381-5859,Addiction treatment center in West Virginia,Point Pleasant,WV,38.9063705,-82.1198969,OpenStreetMap (Overpass)
Erection Clinic,https://erectionclinic.com/,info@drjantiagingclinic.com,+1-407-974-6855,Dr J. MD,Orlando,FL,28.4302749,-81.4794937,OpenStreetMap (Overpass)
Hunters Creek Emergency Room,https://www.hcafloridahealthcare.com/locations/hunters-creek-emergency,,,HCA Florida,Orlando,FL,28.3907588,-81.4261465,OpenStreetMap (Overpass)
Clean Recovery Centers,https://www.cleanrecoverycenters.com/locations/sarasota/,info@cleanrecoverycenters.com,,"Clean Recovery Centers in Sarasota, FL provides a holistic and personalized approach to drug and alcohol rehabilitation, offering a range of outpatient and inpatient services, specialized addiction programs, mental health treatments, and tailored programs",Sarasota,FL,27.2666436,-82.4784506,OpenStreetMap (Overpass)
Louisiana Behavioral Health,https://oceanshealthcare.com/ohc-location/louisiana-behavioral-health-in-shreveport,shreveportinfo@oceanshealthcare.com,+1 318-644-8830,"At Louisiana Behavioral Health, we provide compassionate and effective mental health services to adults and seniors in the Shreveport community. Our comprehensive programs and customized treatment plans empower individuals to manage their mental health, b",Shreveport,LA,32.4030521,-93.76583,OpenStreetMap (Overpass)
Duke University Hospital Emergency Room,https://www.dukehealth.org/locations/duke-university-hospital-emergency-room,,+1-919-684-2413,Duke Health,Durham,NC,36.0070427,-78.9375856,OpenStreetMap (Overpass)
Elevation Autism Center,https://elevationautism.com/,info@elevationautism.com,,"Elevation Autism Center, located in Alpharetta, GA, is a trusted Mental Wellness Center focused on empowering children with autism. Through ABA therapy, the center identifies behavioral triggers and applies effective strategies to encourage developmental",Alpharetta,GA,34.0597446,-84.2747592,OpenStreetMap (Overpass)
Clean Recovery Centers New Port Richey,https://www.cleanrecoverycenters.com/locations/newportrichey/,info@cleanrecoverycenters.com,+1-727-758-4554,,New Port Richey,FL,28.2854007,-82.660805,OpenStreetMap (Overpass)
Real Recovery Solutions North Tampa,https://realrecoveryfl.com/what-we-treat/treatment-tampa/,info@realrecoverysolutions.com,+1-813-373-6762,,Tampa,FL,28.0806068,-82.4597531,OpenStreetMap (Overpass)
HCA Florida Orange Park Hospital,https://www.hcafloridahealthcare.com/locations/orange-park-hospital/,,+1-904-639-8500,HCA,Orange Park,FL,30.1656226,-81.7378772,OpenStreetMap (Overpass)
Stems Health Regenerative Medicine Miami,https://stemshealthregenerativemedicine.com/,admin@stems-health.com,+1 305-677-0565,"STEMS Health in Miami Beach, led by Drs. Ankeet Choxi & Jarred Mait, offers regenerative therapies: stem cells, PRP, exosomes. Treating pain (spine/joints), cosmetic rejuvenation, sexual health (O/P-shots), Stem cell banking. Non-surgical solutions.",Miami Beach,FL,25.8136211,-80.1347815,OpenStreetMap (Overpass)
Inspire Hospice Atlanta,https://inspirehospice.com/,,+1-404-508-5717,,Atlanta,GA,33.8466883,-84.3669099,OpenStreetMap (Overpass)
Pearly Bites Veterinary,https://www.pearlybitesfl.com/,hellostpete@pearlybites.com,+1-727-471-6407,,Saint Petersburg,FL,27.8745509,-82.640202,OpenStreetMap (Overpass)
The Longevity Centers Of America,https://www.thelcoa.com/,infogvl@thelcoa.com,,The Longevity Center provides advanced wellness care rooted in integrative and regenerative medicine.,Greenville,SC,34.8619208,-82.3860584,OpenStreetMap (Overpass)
Action Behavior Centers - ABA Therapy for Autism,https://www.actionbehavior.com/location/north-carolina/ballantyne-west-lancaster,,+1-980-209-1661,,Charlotte,NC,35.0431354,-80.8620822,OpenStreetMap (Overpass)
Men's Mental Health,https://mensmentalhealthservices.com/,info@mensmentalhealthservices.com,+1-904-833-4636,,Jacksonville,FL,30.3153203,-81.6535416,OpenStreetMap (Overpass)
Touro Infirmary,https://www.touro.com/,,+1 504-897-7011,,New Orleans,,29.9260063,-90.0921924,OpenStreetMap (Overpass)
Oschner Baptist Medical Center,https://www.ochsner.org/locations/ochsner-baptist,,+1 504 899 9311,Ochsner Health System,New Orleans,,29.9377578,-90.1044117,OpenStreetMap (Overpass)
Northridge Medical Center,http://www.northridgemc.com/,,+1 706 335 1000,,Commerce,,34.2196285,-83.4688386,OpenStreetMap (Overpass)
Doctors Hospital of Augusta,https://doctors-hospital.net/,,+1 706 651 3232,HCA Holdings,Augusta,,33.4864304,-82.0945236,OpenStreetMap (Overpass)
Wills Memorial Hospital,https://www.willsmemorialhospital.com/,,+1 706 678 2151,,Washington,,33.7286472,-82.7427287,OpenStreetMap (Overpass)
Charlie Norwood VA Medical Center - Uptown Division,https://www.augusta.va.gov/,,+1 706 733 0188,,Augusta,,33.4642841,-82.0277885,OpenStreetMap (Overpass)
Saint Francis Hospital,https://www.mystfrancis.com/,,+1 706 596 4000,,Columbus,,32.5053658,-84.9598197,OpenStreetMap (Overpass)
Effingham Hospital,https://www.effinghamhealth.org/,,+1 912 754 6451,Effingham Health System,Springfield,,32.3639428,-81.3209621,OpenStreetMap (Overpass)
Perry Hospital,https://www.hhc.org/,,+1 478 987 3600,Houston Healthcare,Perry,,32.4589503,-83.7095781,OpenStreetMap (Overpass)
Colquitt Regional Medical Center,https://colquittregional.com/,,+1 229 985 3420,,Moultrie,,31.1258626,-83.7803832,OpenStreetMap (Overpass)
Cape Fear Valley Medical Center,http://www.capefearvalley.com/hospitals/cfvmc.html,,+1 910 615 4000,Cape Fear Valley Health,Fayetteville,,35.0314279,-78.9341577,OpenStreetMap (Overpass)
VA Medical Center,https://www.fayettevillenc.va.gov/,,+1 910 488 2120,VA,Fayetteville,,35.0879477,-78.8766464,OpenStreetMap (Overpass)
SummitRidge Hospital,https://www.summitridgehospital.net/,,+1 678 442 5858,,Lawrenceville,GA,33.9424553,-83.9896385,OpenStreetMap (Overpass)
WellStar Spalding Regional Hospital,https://www.wellstar.org/locations/pages/wellstar-spalding-regional-hospital.aspx,,+1 770 228 2721,WellStar Health System,Griffin,,33.2389242,-84.2672272,OpenStreetMap (Overpass)
Piedmont Henry Hospital,https://www.piedmont.org/locations/piedmont-henry/phh-home,,+1 678 604 1000,Piedmont Healthcare,Stockbridge,,33.511221,-84.2271669,OpenStreetMap (Overpass)
Piedmont Fayette Hospital,https://www.piedmont.org/locations/piedmont-fayette/pfh-home,,+1 770 719 7000,Piedmont Healthcare,Fayetteville,,33.4529322,-84.5079922,OpenStreetMap (Overpass)
Southern Regional Medical Center,https://www.southernregional.org/,,+1 770 991 8000,Prime Healthcare Services,Riverdale,,33.5796661,-84.3894923,OpenStreetMap (Overpass)
Piedmont Newton Hospital,https://www.piedmont.org/locations/piedmont-newton/newton-home,,+1 770 786 7053,Piedmont Healthcare,Covington,,33.6011722,-83.8480073,OpenStreetMap (Overpass)
Rockdale Medical Center,https://www.rockdalemedicalcenter.org/,,+1 770 918 3000,,Conyers,,33.6812613,-84.0017228,OpenStreetMap (Overpass)
DeKalb Medical Hillandale,https://www.dekalbmedical.org/hillandale,,+1 404 501 8000,DeKalb Medical,Lithonia,GA,33.7056845,-84.1483662,OpenStreetMap (Overpass)
Piedmont Atlanta Hospital,https://www.piedmont.org/locations/piedmont-atlanta/pah-home,,+1 404 605 5000,Piedmont Healthcare,Atlanta,GA,33.8091461,-84.3954735,OpenStreetMap (Overpass)
WellStar Cobb Hospital,https://www.wellstar.org/locations/pages/wellstar-cobb-hospital.aspx,,+1-470-732-4000,WellStar Health System,Austell,GA,33.8575571,-84.6045204,OpenStreetMap (Overpass)
Piedmont Eastside Medical Center,https://eastsidemedical.com/,,+1 770 979 0200,HCA Holdings,Snellville,,33.877586,-84.0214083,OpenStreetMap (Overpass)
Northside Hospital,https://www.northside.com/,,+1 404 851 8000,Northside Hospital,Atlanta,GA,33.9102276,-84.3544306,OpenStreetMap (Overpass)
Gwinnett Medical Center,https://www.northside.com/locations/northside-hospital-gwinnett,,+1 678 312 1000,Gwinnett Medical Center,Lawrenceville,GA,33.9634227,-84.0173109,OpenStreetMap (Overpass)
Northeast Georgia Medical Center Barrow,https://www.nghs.com/locations/barrow/,,+1 770 867 3400,Northeast Georgia Health System,Winder,,34.0075293,-83.7080095,OpenStreetMap (Overpass)
Emory Johns Creek Hospital,https://www.emoryhealthcare.org/locations/hospitals/emory-johns-creek-hospital/,,+1 678 474 7000,Emory Healthcare,Johns Creek,GA,34.0668257,-84.1760594,OpenStreetMap (Overpass)
University Hospital & Clinics,https://www.lafayettegeneral.com/our_facilities/main_facilities/university_hospital_clinics.aspx,,+1 337 261 6000,Lafayette General Health,Lafayette,,30.21707,-92.0466543,OpenStreetMap (Overpass)
Rapides Women's & Children's Hospital,https://rapidesregional.com/service/women-infant-care,,+1 318 769 7000,,Alexandria,,31.3136023,-92.4499248,OpenStreetMap (Overpass)
Eye Institute,https://health.usf.edu/doctors/ophthalmology/,,+1 813 974 2201,,Tampa,,28.0650279,-82.4194354,OpenStreetMap (Overpass)
Conway Medical Center,https://www.conwaymedicalcenter.com/,,+1 843 347 7111,,Conway,SC,33.7850492,-79.0007228,OpenStreetMap (Overpass)
Emory University Hospital,https://www.emoryhealthcare.org/locations/hospitals/emory-university-hospital/,,+1 404 712 2000,Emory Healthcare,Atlanta,,33.7921377,-84.3221736,OpenStreetMap (Overpass)
Leonard J. Chabert Medical Center,https://www.ochsner.org/locations/leonard-j-chabert-medical-center,,+1 985 873 2200,Ochsner Health System,Houma,,29.569797,-90.6882537,OpenStreetMap (Overpass)
Terrebonne General Medical Center,https://www.tgmc.com/,,+1 985 873 4141,,Houma,,29.5971724,-90.7145773,OpenStreetMap (Overpass)
Parkway Campus,https://www.decaturmorganhospital.net/,,+1 256 973 6000,Huntsville Hospital Health System,Decatur,AL,34.5768231,-87.0160441,OpenStreetMap (Overpass)
Northport Medical Center,https://www.dchsystem.com/our_facilities/northport_medical_center.aspx,,+1 205 333 4500,DCH Health System,Northport,AL,33.234807,-87.5709509,OpenStreetMap (Overpass)
Arnold Palmer Hospital for Children,https://www.arnoldpalmerhospital.com/,,+1 321 843 2584,Orlando Health,Orlando,,28.5229302,-81.3798753,OpenStreetMap (Overpass)
Lower Keys Medical Center,https://www.lkmc.com/,,+1 305 294 5531,,Key West,,24.5809608,-81.7427402,OpenStreetMap (Overpass)
Saint Joseph's Hospital-North,https://baycare.org/sjhn,,+1 813 443 7000,BayCare Health System,Lutz,FL,28.1296373,-82.5091633,OpenStreetMap (Overpass)
Martin Hospital South,https://www.martinhealth.org/martin-hospital-south,,+1 772 223 2300,Martin Health,Stuart,,27.1334653,-80.2234737,OpenStreetMap (Overpass)
Martin Medical Center,https://www.martinhealth.org/mhs-martin-medical-center,,+1 772 287 5200,Martin Health System,Stuart,,27.199773,-80.2435135,OpenStreetMap (Overpass)
Shriners Hospitals for Children â€” Greenville,https://www.shrinershospitalsforchildren.org/greenville,,+1 864 271 3444,Shriners Hospitals for Children,Greenville,,34.8172268,-82.4130474,OpenStreetMap (Overpass)
Physicians Regional Medical Center - Pine Ridge,http://www.physiciansregional.com/physicians-regional-healthcare-system/physicians-regional-pine-ridge.aspx,,+1 239 348 4000,Physicians Regional Healthcare System,Naples,,26.2137957,-81.732629,OpenStreetMap (Overpass)
Cleveland Clinic Hospital,https://my.clevelandclinic.org/florida/,,+1 954 659 5000,Cleveland Clinic,Weston,,26.0819606,-80.3652629,OpenStreetMap (Overpass)
Northeast Alabama Regional Medical Center,https://rmccares.org/,,+1 256 235 5121,,Anniston,AL,33.6552905,-85.8228673,OpenStreetMap (Overpass)
RMC Stringfellow Memorial Hospital,https://www.rmcstringfellow.org/,,+1 256 235 8900,,Anniston,,33.6681275,-85.8237885,OpenStreetMap (Overpass)
Bascom Palmer Eye Institute/Anne Bates Leach Eye Hospital,https://umiamihealth.org/locations/bascom-palmer-eye-institute,,+1 305-326-6000,,Miami,,25.7909879,-80.2106874,OpenStreetMap (Overpass)
Georgia Regional Hospital,https://dbhdd.georgia.gov/georgia-regional-hospital-savannah,,+1 912 356 2011,,Savannah,,31.9997438,-81.0823247,OpenStreetMap (Overpass)
Palm Beach Gardens Medical Center,https://www.pbgmc.com/,,+1 561 622 1411,,Palm Beach Gardens,,26.8291518,-80.0861853,OpenStreetMap (Overpass)
West Palm Beach Veterans Administration Medical Center,https://www.westpalmbeach.va.gov/,,+1 561 422 8262,Veterans Health Administration,West Palm Beach,FL,26.7855178,-80.1113137,OpenStreetMap (Overpass)
Jackson Hospital,https://www.jackson.org/,,+1 334 293 8000,,Montgomery,,32.3671897,-86.2847828,OpenStreetMap (Overpass)
Winter Haven Hospital,https://baycare.org/whh,,+1 863 293 1121,Baycare Health System,Winter Haven,,28.0287728,-81.7253962,OpenStreetMap (Overpass)
Baptist Medical Center Beaches,https://www.baptistjax.com/locations/baptist-medical-center-beaches,,+1 904 627 2900,Baptist Health,Jacksonville Beach,,30.2733822,-81.399021,OpenStreetMap (Overpass)
Mayo Clinic Jacksonville Campus,https://www.mayoclinic.org/patient-visitor-guide/florida,,+1 904 953 2000,Mayo Clinic,Jacksonville,,30.2593798,-81.4453841,OpenStreetMap (Overpass)
Lawnwood Regional Medical Center and Heart Institute,https://lawnwoodmed.com/,,+1 772 461 4000,HCA East Florida,Fort Pierce,,27.4319888,-80.3454489,OpenStreetMap (Overpass)
Gulf Breeze Hospital,https://www.ebaptisthealthcare.org/GulfBreezeHospital/,,+1 850 934 2000,Baptist Health Care,Gulf Breeze,FL,30.3603206,-87.1581427,OpenStreetMap (Overpass)
Saint Mary's Medical Center,https://www.stmarysmc.com/,,+1 561 844 6300,,West Palm Beach,,26.756386,-80.0634369,OpenStreetMap (Overpass)
Tallahassee Memorial HealthCare,https://www.tmh.org/,,,Tallahassee Memorial HealthCare,Tallahassee,FL,30.4574798,-84.2610336,OpenStreetMap (Overpass)
Holmes Regional Medical Center,https://health-first.org/hospitals_services/hrmc/,,+1 321 434 7000,Health First,Melbourne,,28.087637,-80.6143968,OpenStreetMap (Overpass)
Memorial Hospital Miramar,https://www.mhs.net/locations/memorial-miramar,,+1 954 538 5000,Memorial Healthcare System,Miramar,,25.9900687,-80.3719596,OpenStreetMap (Overpass)
Atrium Health Kannapolis,https://www.carolinashealthcare.org/locations/carolinas-healthcare-system-kannapolis,,+1 704 403 3000,Atrium Health,Kannapolis,,35.5007673,-80.5680856,OpenStreetMap (Overpass)
Atrium Health Navicent Medical Center,https://www.navicenthealth.org/,,+1 478 633 1000,Atrium Health,Macon,GA,32.8338829,-83.6361351,OpenStreetMap (Overpass)
Lakewood Ranch Medical Center,https://www.lakewoodranchmedicalcenter.com/,,+1-941-782-2100,Universal Health Services,Lakewood Ranch,,27.3908457,-82.4356117,OpenStreetMap (Overpass)
Heart of Florida Regional Medical Center,https://www.heartofflorida.com/,,+1 863 422 4971,,Davenport,,28.1812104,-81.6420657,OpenStreetMap (Overpass)
Princeton Baptist Medical Center,https://www.brookwoodbaptisthealth.com/our-locations/princeton-baptist-medical-center-location,,+1 205 783 3000,Brookwood Baptist Health,Birmingham,,33.4981005,-86.8469527,OpenStreetMap (Overpass)
Santa Rosa Medical Center,https://www.srmcfl.com/,,+1 850 626 7762,,Milton,FL,30.6335819,-87.0669707,OpenStreetMap (Overpass)
Lee County VA Healthcare Center,https://www.baypines.va.gov/locations/lee_county_VA_healthcare_center_cape_coral_FL.asp,,+1 239 652 1800,Veterans Health Administration,Cape Coral,,26.6854929,-81.9198923,OpenStreetMap (Overpass)
West Florida Hospital,https://westfloridahospital.com/,,+1 850 494 3212,HCA,Pensacola,FL,30.5157356,-87.2173743,OpenStreetMap (Overpass)
Merit Health Gilmore Memorial,http://www.merithealthgilmore.com/,,+1 662 256 7111,Merit Health,Amory,,33.976655,-88.4766627,OpenStreetMap (Overpass)
Sacred Heart Hospital of Pensacola,http://www.sacred-heart.org/,,+1 850-416-7000,Ascension,Pensacola,FL,30.4777005,-87.2121326,OpenStreetMap (Overpass)
Ochner Orthopedic Hospital,https://www.lafayettegeneral.com/southwest,,+1 337 981 2949,Lafayette General Medical Center,Lafayette,,30.1979023,-92.07755,OpenStreetMap (Overpass)
HealthSouth Rehabilitation Center of Miami,http://www.healthsouthmiami.com/,,+1 305 251 3800,Encompass Health,Miami,FL,25.5748599,-80.3411363,OpenStreetMap (Overpass)
North Okaloosa Medical Center,https://www.northokaloosa.com/,,+1 850 689 8100,,Crestview,,30.7356806,-86.5629368,OpenStreetMap (Overpass)
Broward Health North,https://www.browardhealth.org/locations/broward-health-north,,+1 954 941 8300,Broward Health,Deerfield Beach,,26.2771084,-80.1215376,OpenStreetMap (Overpass)
Duke Raleigh Hospital,https://www.dukehealth.org/hospitals/duke-raleigh-hospital/home,,+1 919 954 3000,Duke Health,Raleigh,,35.8286051,-78.6179388,OpenStreetMap (Overpass)
Memorial Hospital West,https://www.mhs.net/locations/memorial-west,,+1 954 436 5000,Memorial Healthcare System,Pembroke Pines,,26.0126665,-80.3098408,OpenStreetMap (Overpass)
Holly Hill Hospital,https://hollyhillhospital.com/,,+1 919 250 7000,,Raleigh,,35.7830145,-78.5840223,OpenStreetMap (Overpass)
WakeMed Health & Hospitals: Raleigh Campus,https://www.wakemed.org/raleigh-campus,,+1 919 350 8000,WakeMed Health & Hospitals,Raleigh,,35.7825655,-78.588128,OpenStreetMap (Overpass)
Nicklaus Children's Palmetto Bay Outpatient Center,https://www.nicklauschildrens.org/about-us/locations-and-directions/palmetto-bay-outpatient-center,,+1 786-268-1777,Miami Children's Health System,Miami,FL,25.6055253,-80.3474826,OpenStreetMap (Overpass)
Watauga Medical Center,https://apprhs.org/wataugamedical/,,+1 828 262 4100,Appalachian Regional Healthcare System,Boone,,36.1984604,-81.6510622,OpenStreetMap (Overpass)
Ochsner Medical Center,https://www.ochsner.org/locations/ochsner-medical-center,,+1 866 624 7637,Ochsner Health System,New Orleans,,29.9609679,-90.1455925,OpenStreetMap (Overpass)
Johnston UNC Health Care Clayton,https://johnstonhealth.org/locations/johnston-health-clayton/,,+1 919 585 8000,,Clayton,NC,35.6306362,-78.5029168,OpenStreetMap (Overpass)
Shoals Hospital,http://www.shoalshospital.com/,,+1 256 386 1600,,Muscle Shoals,,34.7470467,-87.676987,OpenStreetMap (Overpass)
Helen Keller Hospital,https://www.helenkeller.com/,,+1 256 386 4196,,Sheffield,AL,34.7460266,-87.7008249,OpenStreetMap (Overpass)
Nash General Hospital,https://nhcs.org/hospitals/nash_general,,+1 252 962 8000,Nash Health Care Systems,Rocky Mount,NC,35.9761292,-77.8547902,OpenStreetMap (Overpass)
Our Lady of Lourdes Regional Medical Center,https://lourdesrmc.com/,,+1 337 470 2000,,Lafayette,,30.150367,-92.0371351,OpenStreetMap (Overpass)
West Kendall Baptist Hospital,https://baptisthealth.net/locations/hospitals/west-kendall-baptist-hospital,,+1 786 467 2000,Baptist Health South Florida,Miami,FL,25.6787153,-80.4547988,OpenStreetMap (Overpass)
Palmetto General Hospital,https://www.palmettogeneral.com/,,+1 305 823 5000,,Hialeah,,25.8862089,-80.3260853,OpenStreetMap (Overpass)
Wiregrass Medical Center,https://www.wiregrassmedicalcenter.org/,,+1 334 684 3655,,Geneva,,31.048822,-85.8920102,OpenStreetMap (Overpass)
Carolinas Medical Center,http://www.carolinashealthcare.org/locations/carolinas-medical-center,,+1 704 355 2000,,Charlotte,NC,35.2033384,-80.8388304,OpenStreetMap (Overpass)
Fishermen's Community Hospital,http://fishermenshospital.org/,,+1 305 743 5533,,Marathon,,24.7103281,-81.0946363,OpenStreetMap (Overpass)
University of Florida Health Shands Cancer Hospital,https://ufhealth.org/uf-health-shands-cancer-hospital,,+1 352 265 0111,University of Florida Health,Gainesville,,29.6388494,-82.3424088,OpenStreetMap (Overpass)
Osceola Regional Medical Center,https://osceolaregional.com/,,+1 407 846 2266,HCA,Kissimmee,,28.2994929,-81.4098603,OpenStreetMap (Overpass)
LifeBrite Community Hospital of Stokes,http://lifebritestokes.com,,+1 336 593 2831,,Danbury,NC,36.4180751,-80.2308618,OpenStreetMap (Overpass)
Piedmont Athens Regional Medical Center,http://www.athenshealth.org/,,+1-706-475-7000,Athens Regional Health System,Athens,,33.9608127,-83.3992177,OpenStreetMap (Overpass)
George E. Weems Memorial Hospital,https://www.weemsmemorial.com/,,+1 850 653 8853,,Apalachicola,FL,29.7243915,-84.9923361,OpenStreetMap (Overpass)
96th Medical Group,https://www.airforcemedicine.af.mil/MTF/Eglin/,,+1 850 883 9042,,Eglin Air Force Base,,30.46212,-86.5574927,OpenStreetMap (Overpass)
Willis-Knighton Medical Center,https://www.wkhs.com/Locations/MedicalCenter.aspx,,+1 318 212 4000,Willis-Knighton Health System,Shreveport,,32.4848386,-93.7785765,OpenStreetMap (Overpass)
Carteret Health Care Medical Center,https://www.carterethealth.org/,,+1 252 499 6000,,Morehead City,,34.7259386,-76.7551913,OpenStreetMap (Overpass)
McLeod Health Clarendon,https://www.mcleodhealth.org/locations/mcleod-clarendon/,,+1 803 433 3000,McLeod Health,Manning,,33.6870226,-80.2107458,OpenStreetMap (Overpass)
Duke University Hospital,https://www.dukehealth.org/hospitals/duke-university-hospital/home,,+1 919 684 8111,,Durham,,36.0070034,-78.9373927,OpenStreetMap (Overpass)
HCA Florida - Pasadena Hospital,https://palmspasadena.com/,,+1 727 381 1000,HCA,Saint Petersburg,FL,27.7525503,-82.7400104,OpenStreetMap (Overpass)
Aventura Hospital and Medical Center,https://www.hcafloridahealthcare.com/locations/aventura-hospital/,,+1 305 682 7000,HCA East Florida,Aventura,FL,25.9703148,-80.1448582,OpenStreetMap (Overpass)
Holy Cross Hospital,https://www.holy-cross.com/,,+1 954 229 7970,,Fort Lauderdale,FL,26.187107,-80.1190075,OpenStreetMap (Overpass)
Broward Health Imperial Point,https://www.browardhealth.org/locations/broward-health-imperial-point,,+1 954 776 8500,Broward Health,Fort Lauderdale,,26.2069666,-80.1100566,OpenStreetMap (Overpass)
Broward Health Medical Center,https://www.browardhealth.org/locations/broward-health-medical-center,,+1 954 355 4400,Broward Health,Fort Lauderdale,FL,26.1026861,-80.141205,OpenStreetMap (Overpass)
Slidell Memorial Hospital,https://slidellmemorial.org/,,+1 985 280 2200,Slidell Memorial Hospital,Slidell,,30.2837216,-89.770234,OpenStreetMap (Overpass)
Murphy Medical Center,http://www.murphymedical.org/,,+1 828 837 8161,,Murphy,,35.072723,-83.9670565,OpenStreetMap (Overpass)
Mount Sinai Medical Center,https://www.msmc.com/,,+1 305 674 2121,,Miami Beach,,25.8134778,-80.1418569,OpenStreetMap (Overpass)
Miami Jewish Health Systems,https://miamijewishhealthsystems.org/,,+1 305 751 8626,,Miami,,25.8233923,-80.1938026,OpenStreetMap (Overpass)
Delray Medical Center,https://www.delraymedicalctr.com/,,+1 561 498 4440,,Delray Beach,,26.4372865,-80.1270157,OpenStreetMap (Overpass)
Good Samaritan Hospital,https://www.goodsamaritanmc.com/,,+1 561 655 5511,,West Palm Beach,,26.7253667,-80.0514994,OpenStreetMap (Overpass)
Our Lady of the Sea General Hospital,https://www.losgh.org/,,+1 985 632 6401,,Cut Off,LA,29.4566613,-90.3115515,OpenStreetMap (Overpass)
Flagler Hospital,https://www.flaglerhospital.org/,,+1 904 819 5155,,Saint Augustine,,29.862972,-81.3192753,OpenStreetMap (Overpass)
Sunland,https://apd.myflorida.com/sunland/,,+1 850 482 9210,,Marianna,FL,30.8313267,-85.1741331,OpenStreetMap (Overpass)
Charleston Area Medical Center - Memorial Hospital,http://camc.org/mh,,,,Charleston,,38.3300317,-81.6040866,OpenStreetMap (Overpass)
Charleston Area Medical Center - Women and Children's Hospital,https://www.camc.org/wch,,,,Charleston,,38.3591999,-81.6378667,OpenStreetMap (Overpass)
Southeast Louisiana Veterans Health Care System,https://www.neworleans.va.gov/l,,+1 800 935 8387,,New Orleans,,29.9615183,-90.0851361,OpenStreetMap (Overpass)
WakeMed Cary Hospital,https://www.wakemed.org/cary-hospital,,+1 919 350 8000,WakeMed Health & Hospitals,Cary,,35.7403322,-78.7815535,OpenStreetMap (Overpass)
Wellington Regional Medical Center,https://www.wellingtonregional.com/,,+1 561 798 8500,Universal Health Services,Wellington,,26.6525619,-80.2049889,OpenStreetMap (Overpass)
Prisma Health Greer Memorial Hospital,https://prismahealth.org/hospitals/prisma-health-greer-memorial-hospital,,+1 864 797 8000,Prisma Health,Greer,,34.9193787,-82.2447523,OpenStreetMap (Overpass)
Dr. P. Phillips Hospital,https://www.orlandohealth.com/facilities/dr-p-phillips-hospital,,+1 407 351 8500,Orlando Health,Orlando,,28.428802,-81.4782902,OpenStreetMap (Overpass)
Florida State Hospital,https://www.myflfamilies.com/service-programs/mental-health/fsh,,+1 850 663 7536,,Chattahoochee,FL,30.7058587,-84.8344005,OpenStreetMap (Overpass)
Charleston Area Medical Center General Hospital,https://www.camc.org/gh,,,,Charleston,,38.3477598,-81.6272555,OpenStreetMap (Overpass)
Saint Francis Hospital,http://www.stfrancishospital.com/,,+1 304 347 6500,,Charleston,,38.3539623,-81.6326547,OpenStreetMap (Overpass)
Baptist Medical Center South,https://www.baptistjax.com/locations/baptist-medical-center-south,,+1 904 271 6000,Baptist Health,Jacksonville,,30.1384801,-81.5345597,OpenStreetMap (Overpass)
dePoo Medical Building,https://www.lkmc.com,,+1 305 294 5531,,Key West,,24.5642963,-81.7674556,OpenStreetMap (Overpass)
Johnston Health,https://johnstonhealth.org/,,+1 919 934 8171,UNC Health,Smithfield,NC,35.5148666,-78.3337034,OpenStreetMap (Overpass)
St. Francis Downtown,https://bonsecours.com/greenville,,+1 864 255 1000,Bon Secours Health System,Greenville,SC,34.8405175,-82.4214888,OpenStreetMap (Overpass)
Naval Hospital Beaufort,https://www.med.navy.mil/sites/nhbeaufort/,,+1 843 228 5600,,Beaufort,,32.3890622,-80.6817615,OpenStreetMap (Overpass)
Melbourne Regional Medical Center,https://www.melbourneregional.org/,,+1-321-752-1200,,Melbourne,,28.1092733,-80.6744263,OpenStreetMap (Overpass)
Berkeley Medical Center,https://www.wvuniversityhealthcare.com/locations/Berkeley-Medical-Center.aspx,,+1 304 264 1000,,Martinsburg,,39.4752139,-77.98086,OpenStreetMap (Overpass)
Beckley Appalachian Regional Hospital,https://www.arh.org/locations/beckley.aspx,,+1 304 255 3000,,Beckley,,37.7988778,-81.1683908,OpenStreetMap (Overpass)
Frye Regional Medical Center,https://www.fryemedctr.com/,,+1-828-315-5000,,Hickory,,35.7373115,-81.3380875,OpenStreetMap (Overpass)
Catawba Valley Medical Center,https://catawbavalleymedical.org/,,+1-828-326-3000,,Hickory,,35.7144466,-81.2673877,OpenStreetMap (Overpass)
W. G. (Bill) Hefner Veterans Affairs Medical Center,https://www.salisbury.va.gov/,,+1-704-638-9000,,Salisbury,,35.6842588,-80.4908447,OpenStreetMap (Overpass)
Novant Health Rowan Medical Center,https://www.novanthealth.org/rowan-medical-center.aspx,,+1-704-210-5000,Novant Health,Salisbury,,35.6815778,-80.4711058,OpenStreetMap (Overpass)
Baptist Medical Center Jacksonville,https://www.baptistjax.com/locations/baptist-medical-center-jacksonville,,+1 904 202 2000,Baptist Health,Jacksonville,,30.3156224,-81.6633259,OpenStreetMap (Overpass)
New Hanover Regional Medical Center,https://www.nhrmc.org/,,+1 910 343 7000,,Wilmington,NC,34.2053619,-77.9210283,OpenStreetMap (Overpass)
Randolph Health,http://www.randolphhospital.org/,,+1 336 625 5151,,Asheboro,,35.7116899,-79.8144362,OpenStreetMap (Overpass)
Easley Baptist Hospital,http://www.baptisteasley.org/,,,,Easley,,34.8406856,-82.6068456,OpenStreetMap (Overpass)
Mountain Lakes Medical Center,https://www.mountainlakesmedicalcenter.com/,,+1 706 782 3100,,Clayton,,34.8837049,-83.4149926,OpenStreetMap (Overpass)
Boca Raton Regional Hospital,https://www.brrh.com/,,+1 561 955 7100,,Boca Raton,,26.3591189,-80.1026106,OpenStreetMap (Overpass)
Halifax Health Medical Center,https://www.halifaxhealth.org/locations/hospitals/halifax-health-medical-center,,+1 386 425 4000,Halifax Health,Daytona Beach,,29.2015985,-81.054366,OpenStreetMap (Overpass)
Jay Hospital,http://www.ebaptisthealthcare.org/JayHospital/,,+1 850-675-8000,Baptist Health Care,Jay,FL,30.9498142,-87.1508976,OpenStreetMap (Overpass)
Nemours Children's Specialty Care,https://www.nemours.org/locations/specialty-care/florida-pediatric-specialty-care-jacksonville.html,,+1 904 697 3600,,Jacksonville,,30.3129361,-81.6631742,OpenStreetMap (Overpass)
Healthmark Regional Medical Center,https://healthmarkregional.com/,,+1 850 951 4500,,DeFuniak Springs,,30.6599693,-86.1176072,OpenStreetMap (Overpass)
Springhill Medical Center,https://www.springhillmedicalcenter.com/,,+1 251 344 9630,,Mobile,,30.6844008,-88.1301352,OpenStreetMap (Overpass)
North Oaks Medical Center,https://www.northoaks.org/,,+1 985 345 2700,North Oaks Health System,Hammond,,30.4654302,-90.4601408,OpenStreetMap (Overpass)
Clinch Memorial Hospital,http://www.clinchmemorialhospital.org/,,+1-912-487-5211,South Georgia Medical Center,Homerville,GA,31.033903,-82.7644444,OpenStreetMap (Overpass)
Piedmont Mountainside Hospital,https://www.piedmont.org/locations/piedmont-mountainside/pmh-home,,+1-706-692-2441,Piedmont Healthcare,Jasper,GA,34.4464418,-84.4471395,OpenStreetMap (Overpass)
WakeMed North Family Health & Womenâ€™s Hospital,https://www.wakemed.org/north,,+1 919 350 8000,WakeMed Health & Hospitals,Raleigh,,35.9091399,-78.5978162,OpenStreetMap (Overpass)
HCA Florida West Marion Hospital,https://ocalahealthsystem.com/service/west-marion-community-hospital,,+1 352 291 3000,HCA,Ocala,,29.1409053,-82.2002847,OpenStreetMap (Overpass)
Baptist Memorial Hospital-DeSoto,https://www.baptistonline.org/desoto/,,+1 662 772 4000,Baptist Memorial Health Care Corporation,Southaven,MS,34.9696365,-89.9964758,OpenStreetMap (Overpass)
Northeast Florida State Hospital,https://www.myflfamilies.com/service-programs/mental-health/nefsh,,+1 904 259 6211,,Macclenny,,30.235984,-82.1374024,OpenStreetMap (Overpass)
Thomas Memorial Hospital,https://www.thomaswv.org/,,+1 304 766 3600,,South Charleston,,38.3542397,-81.7265254,OpenStreetMap (Overpass)
Providence Health Northeast,https://www.yourprovidencehealth.com/our-locations/providence-health-northeast,,+1 803 865 4500,Providence Health,Columbia,,34.104417,-80.958541,OpenStreetMap (Overpass)
South Florida Baptist Hospital,https://baycare.org/sfbh,,+1 813 757 1200,Baycare Health System,Plant City,,28.0156413,-82.1389825,OpenStreetMap (Overpass)
Novant Health Clemmons Medical Center,https://www.novanthealth.org/clemmons-medical-center.aspx,,+1 336 893 1000,Novant Health,Clemmons,,36.0283038,-80.3984947,OpenStreetMap (Overpass)
Florida Hospital Heartland Medical Center at Lake Placid,https://www.floridahospital.com/FH_Heartland_Medical_Center_Lake_Placid,,+1 863 465 3777,AdventHealth,Lake Placid,,27.3201087,-81.36967,OpenStreetMap (Overpass)
Greenville Health Systemâ€™ Patewood Medical Campus,https://www.ghs.org/locations/patewoodcampus/,,,Greenville Health Systemâ€™,Greenville,,34.8518787,-82.327142,OpenStreetMap (Overpass)
New Hanover Regional Medical Center Orthopedic Hospital,https://www.nhrmc.org/locations/nhrmc-orthopedic-hospital,,+1 910 667 8100,New Hanover Regional Medical Center,Wilmington,NC,34.2130421,-77.8627311,OpenStreetMap (Overpass)
Logan Regional Medical Center,https://www.loganregionalmedicalcenter.com/,,+1 304 831 1101,,Logan,,37.8460452,-81.9937113,OpenStreetMap (Overpass)
Iredell Memorial Hospital,https://www.iredellhealth.org/,,+1 704 873 5661,Iredell Health System,Statesville,,35.8002057,-80.8787951,OpenStreetMap (Overpass)
AdventHealth Sebring,https://www.adventhealth.com/hospital/adventhealth-sebring,,+1 863 314 4466,AdventHealth,Sebring,,27.5394278,-81.5087294,OpenStreetMap (Overpass)
Regional General Hospital Williston,http://regionalgeneral.com,,+1-352-528-2801,,Williston,FL,29.3837536,-82.4550752,OpenStreetMap (Overpass)
Ascension Hospital,https://umrhospital.com/locations/ascension/,,+1 225 450 2775,United Medical Rehabilitation Hospitals,Gonzales,,30.2247621,-90.9154641,OpenStreetMap (Overpass)
Saint Elizabeth Hospital,https://steh.com/,,+1 225 647 5000,Franciscan Missionaries of Our Lady Health System,Gonzales,,30.2092652,-90.9321868,OpenStreetMap (Overpass)
Emergency Center - Northeast,https://www.tmh.org/services/emergency/emergency-center-northeast,,+1 850 422 5413,Tallahassee Memorial HealthCare,Tallahassee,FL,30.5002592,-84.2570264,OpenStreetMap (Overpass)
Baptist Clay Medical Campus,https://www.baptistjax.com/locations/baptist-clay-medical-campus,,+1 904 516 1000,Baptist Health,Fleming Island,,30.0792736,-81.7099874,OpenStreetMap (Overpass)
Jackson North Medical Center,https://www.jacksonhealth.org/jackson-north.asp,,+1 305 651 1100,Jackson Health System,North Miami Beach,,25.9303889,-80.2030738,OpenStreetMap (Overpass)
Palms West Hospital,https://palmswesthospital.com/,,+1 561 798 3300,HCA,Loxahatchee,,26.684173,-80.2526573,OpenStreetMap (Overpass)
Apalachee Behavioral Health Center,https://apalacheecenter.org/,,+1-850-523-3333,Apalachee Center Inc,Tallahassee,FL,30.4872112,-84.2400208,OpenStreetMap (Overpass)
Venice Regional Bayfront Health,https://www.veniceregional.com/,,+1 941 485 7711,Bayfront Health,Venice,FL,27.0904054,-82.4455353,OpenStreetMap (Overpass)
HCA Florida - Brandon Hospital,https://brandonhospital.com/,,+1-813-681-5551,HCA,Brandon,FL,27.9326506,-82.2875681,OpenStreetMap (Overpass)
Lake Wales Medical Center,https://www.lakewalesmedicalcenter.com/,,+1 863 676 1433,,Lake Wales,,27.8957699,-81.5653989,OpenStreetMap (Overpass)
Advent Health Celebration,https://www.adventhealth.com/hospital/adventhealth-celebration,,+1-407-303-4000,AdventHealth,Celebration,FL,28.3286728,-81.5418205,OpenStreetMap (Overpass)
Murdoch Developmental Center,https://www.ncdhhs.gov/divisions/dsohf/murdoch-developmental-center-0,,+1 919 575 1000,,Butner,,36.1498773,-78.7387602,OpenStreetMap (Overpass)
Grandview Medical Center,https://www.grandviewhealth.com/,,+1-205-971-1000,,Birmingham,AL,33.4336847,-86.7188003,OpenStreetMap (Overpass)
McLeod Health Darlington,https://www.mcleodhealth.org/locations/mcleod-darlington/,,+1 843 777 1100,McLeod Health,Darlington,,34.3135433,-79.8398888,OpenStreetMap (Overpass)
MUSC Health Urology Marion Medical Park,http://www.carolinashospitalmarion.com/,,+1 843 431 2000,,Mullins,SC,34.1867888,-79.3252217,OpenStreetMap (Overpass)
Central Carolina Hospital,https://www.centralcarolinahosp.com/,,+1 919 774 2100,,Sanford,,35.4688504,-79.1868975,OpenStreetMap (Overpass)
Hampshire Memorial Hospital,https://www.valleyhealthlink.com/Hampshire-Memorial-Hospital.aspx,,+1 304 822 4561,,Romney,WV,39.3332441,-78.6987525,OpenStreetMap (Overpass)
Person Memorial Hospital,https://www.personhospital.com/,,+1 336 599 2121,Duke Lifepoint,Roxboro,NC,36.4083987,-78.9851996,OpenStreetMap (Overpass)
Onslow Memorial Hospital,https://www.onslow.org/,,+1 910 577 2345,,Jacksonville,,34.7632737,-77.3853907,OpenStreetMap (Overpass)
East Georgia Regional Medical Center,https://www.eastgeorgiaregional.com/,,+1 912 486 1000,,Statesboro,,32.4144202,-81.7699946,OpenStreetMap (Overpass)
South Carolina Sexually Violent Predator Treatment Program,https://wellpathcare.com/south-carolina-sexually-violent-predator-treatment-program,,+1 803 545 0333,,Columbia,SC,34.072788,-81.1105558,OpenStreetMap (Overpass)
Braxton County Memorial Hospital,http://www.braxtonmemorial.org/,,+1 304 364 5156,,Gassaway,,38.6607956,-80.748691,OpenStreetMap (Overpass)
Baptist Emergency at Town Center,https://www.baptistjax.com/locations/baptist-emergency-town-center,,+1 904 202 6800,Baptist Health,Jacksonville,,30.2672562,-81.5226381,OpenStreetMap (Overpass)
Piedmont Medical Center,https://www.piedmontmedicalcenter.com/,,+1 803 329 1234,,Rock Hill,SC,34.9569676,-81.0512571,OpenStreetMap (Overpass)
Select Specialty Hospital - Miami,https://miami.selectspecialtyhospitals.com,,+1 305 416 5700,Select Specialty Hospital,Miami,FL,25.7770165,-80.210852,OpenStreetMap (Overpass)
HealthPark Medical Center,https://www.leehealth.org/facilities/healthpark-medical-center.asp,,+1 239 343 5000,Lee Health,Fort Myers,,26.5071924,-81.9131607,OpenStreetMap (Overpass)
Park Royal Hospital,https://www.parkroyalhospital.com/,,+1 239 985 2760,,Fort Myers,,26.5104466,-81.9094556,OpenStreetMap (Overpass)
Atrium Health Harrisburg Emergency Department,https://atriumhealth.org/locations/detail/atrium-health-harrisburg-emergency-department,,+1 704 403 9400,Atrium Health,Harrisburg,NC,35.2853394,-80.6667792,OpenStreetMap (Overpass)
Saint Tammany Parish Hospital,https://www.stph.org/,,+1 985 898 4000,,Covington,,30.468001,-90.114041,OpenStreetMap (Overpass)
Duke Health Lake Norman Hospital,https://www.dukehealth.org/hospitals/duke-health-lake-norman-hospital,,+1 704 660 4000,Duke Health,Mooresville,,35.5492671,-80.8535892,OpenStreetMap (Overpass)
Kings Mountain Hospital,http://www.carolinashealthcare.org/locations/carolinas-healthcare-system-kings-mountain,,+1 980 487 5000,Carolinas Healthcare System,Kings Mountain,,35.2417448,-81.3562411,OpenStreetMap (Overpass)
Carolinas Medical Center - Union,http://www.carolinashealthcare.org/locations/carolinas-healthcare-system-union,,+1 980 993 3100,,Monroe,,34.9753455,-80.5221355,OpenStreetMap (Overpass)
Lallie Kemp Regional Medical Center,https://www.lsuhospitals.org/Hospitals/LK/LK.aspx,,+1 985 878 9421,LSU Health Care Services Division,Independence,,30.6220197,-90.4985007,OpenStreetMap (Overpass)
Charles George VA Medical Center,https://www.asheville.va.gov/,,+1 828 298 7911,,Asheville,,35.5901008,-82.4843635,OpenStreetMap (Overpass)
Atrium Health - Stanly,http://www.stanly.org,,+1 704 984 4000,Atrium Health,Albemarle,,35.3640674,-80.1948503,OpenStreetMap (Overpass)
Wilkes Regional Medical Center,https://wilkesregional.com/,,+1 336 651 8100,,North Wilkesboro,,36.159906,-81.1588752,OpenStreetMap (Overpass)
Carolinas Healthcare System Lincoln,http://www.carolinashealthcare.org/locations/carolinas-healthcare-system-lincoln,,+1 980 212 2000,Atrium Health,Lincolnton,,35.4900639,-81.2030798,OpenStreetMap (Overpass)
Athens-Limestone Hospital,https://www.athenslimestonehospital.com/,,+1-256-233-9292,,Athens,AL,34.8042523,-86.9790974,OpenStreetMap (Overpass)
Decatur Morgan Hospital,https://decaturmorganhospital.net/,,+1 256 973 2000,Huntsville Hospital Health System,Decatur,AL,34.5908408,-86.9713866,OpenStreetMap (Overpass)
Broward Health Coral Springs,https://www.browardhealth.org/locations/broward-health-coral-springs,,+1 954 344 3000,Broward Health,Coral Springs,,26.2691493,-80.2557506,OpenStreetMap (Overpass)
Cartersville Medical Center,https://cartersvillemedical.com/,,+1-770-382-1530,,Cartersville,GA,34.2007653,-84.7955433,OpenStreetMap (Overpass)
WellStar Douglas Hospital,https://www.wellstar.org/locations/pages/wellstar-douglas-hospital.aspx,,+1-770-949-1500,WellStar,Douglasville,GA,33.7389629,-84.7318119,OpenStreetMap (Overpass)
Russellville Hospital,http://www.russellvillehospital.com/,,+1 256 332 1611,,Russellville,,34.5113805,-87.7189259,OpenStreetMap (Overpass)
Red Bay Hospital,https://www.helenkeller.com/red-bay-hospital,,+1 256 356 9532,Helen Keller Hospital,Red Bay,AL,34.4583709,-88.1473713,OpenStreetMap (Overpass)
Grand Strand Regional Medical Center,https://mygrandstrandhealth.com/,,+1 843 692 1000,HCA South Atlantic,Myrtle Beach,,33.7581283,-78.8206144,OpenStreetMap (Overpass)
McLeod Seacoast,https://www.mcleodhealth.org/locations/mcleod-seacoast/,,+1 843 390 8100,McLeod Health,Little River,,33.8659051,-78.6638765,OpenStreetMap (Overpass)
Lake Bridge Behavioral Health System,https://lakebridgebhs.com/,,+1 478 477 3829,,Macon,,32.8953848,-83.6829605,OpenStreetMap (Overpass)
Piedmont Macon Medical Center,https://www.piedmont.org/locations/piedmont-macon-medical/about,,+1 478 765 7000,,Macon,,32.8463641,-83.6191065,OpenStreetMap (Overpass)
Piedmont Macon North Hospital,https://www.piedmont.org/locations/piedmont-macon-north/about,,+1 478 757 8200,,Macon,,32.8712289,-83.6943882,OpenStreetMap (Overpass)
Monroe County Hospital,https://www.monroehospital.org/,,+1 478 994 2521,,Forsyth,,33.0315237,-83.9455871,OpenStreetMap (Overpass)
Florida Hospital Apopka,https://www.floridahospital.com/apopka,,,,Apopka,,28.6815197,-81.507289,OpenStreetMap (Overpass)
South Central Regional Medical Center,https://scrmc.com/,,+1-601-426-4000,,Laurel,MS,31.6852614,-89.1401149,OpenStreetMap (Overpass)
Riverland Medical Center,http://www.riverlandmedical.com/,,+1 318 757 6551,,Ferriday,,31.6468872,-91.5560825,OpenStreetMap (Overpass)
HCA Florida Citrus Park Emergency,https://medicalcentertrinity.com/location/citrus-park-er,,+1 813 282 2850,HCA,Tampa,,28.0658884,-82.5834693,OpenStreetMap (Overpass)
Williamson Memorial Hospital,https://williamsonmemorial.net/,,+1 304 235 2500,,Williamson,,37.6784121,-82.2726171,OpenStreetMap (Overpass)
Weirton Medical Center,https://www.weirtonmedical.com/,,+1 304 797 6362,,Weirton,,40.3931437,-80.5279642,OpenStreetMap (Overpass)
Reynolds Memorial Hospital,http://reynoldsmemorial.com/,,+1 304 845 3211,,Glen Dale,,39.9460945,-80.7527965,OpenStreetMap (Overpass)
War Memorial Hospital,https://www.valleyhealthlink.com/War-Memorial-Hospital.aspx,,+1 304 258 1234,,Berkeley Springs,,39.6417203,-78.2004414,OpenStreetMap (Overpass)
Martinsburg Veterans Affairs Medical Center,https://www.martinsburg.va.gov/,,+1 304 263 0811,,Martinsburg,,39.4164143,-77.9099402,OpenStreetMap (Overpass)
Jefferson Medical Center,https://www.wvuniversityhealthcare.com/locations/Jefferson-Medical-Center.aspx,,+1 304 728 1600,,Ranson,,39.2957413,-77.8587582,OpenStreetMap (Overpass)
Potomac Valley Hospital,https://wvumedicine.org/potomac-valley-hospital/,,+1 304 597 3500,,Keyser,,39.4094877,-79.0031163,OpenStreetMap (Overpass)
Grant Memorial Hospital,https://www.grantmemorial.com/,,+1 304 257 1026,,Petersburg,,39.0012098,-79.137121,OpenStreetMap (Overpass)
HealthSouth Mountainview Regional Rehabilitation Hospital,http://www.healthsouthmountainview.com/,,+1 304 598 1100,,Morgantown,,39.6564637,-79.9621589,OpenStreetMap (Overpass)
Ruby Memorial Hospital,https://wvumedicine.org/ruby-memorial-hospital/,,+1 855 988 2273,WVU Medicine,Morgantown,,39.6544605,-79.9583535,OpenStreetMap (Overpass)
Mon General Hospital,https://www.mongeneral.com/,,+1 304 598 1200,,Morgantown,,39.663221,-79.9466766,OpenStreetMap (Overpass)
Hood Memorial Hospital,https://hoodmemorial.com/,,+1 985 748 9485,,Amite,,30.7325353,-90.5133594,OpenStreetMap (Overpass)
Fairmont Regional Medical Center,http://www.frmcwv.com/,,+1 304 367 7100,Alecto Healthcare,Fairmont,,39.481829,-80.1652069,OpenStreetMap (Overpass)
The Behavioral Health Pavilion of the Virginias,http://www.pchonline.org/ourservices/psychiatry.aspx,,+1 304 325 4673,,Bluefield,,37.2424242,-81.230886,OpenStreetMap (Overpass)
Bluefield Regional Medical Center,https://www.bluefieldregional.net/,,+1 304 327 1100,,Bluefield,WV,37.2558679,-81.2365921,OpenStreetMap (Overpass)
Princeton Community Hospital,http://www.pchonline.org/,,+1 304 487 7000,,Princeton,,37.3630765,-81.1132872,OpenStreetMap (Overpass)
Welch Community Hospital,http://www.dhhr.wv.gov/bhhf/facilities/WelchCommunity/,,+1 304 436 8461,,Welch,,37.4390686,-81.5880882,OpenStreetMap (Overpass)
Greenbrier Valley Medical Center,https://www.gvmc.com/,,+1 304 647 4411,,Ronceverte,,37.772567,-80.4703713,OpenStreetMap (Overpass)
Summers County Appalachian Regional Hospital,https://www.arh.org/locations/summers_county.aspx,,+1 304 466 1000,,Hinton,,37.6507279,-80.8604292,OpenStreetMap (Overpass)
Beckley Veterans Affairs Medical Center,https://www.beckley.va.gov/,,+1 304 255 2121,,Beckley,,37.7648611,-81.1919592,OpenStreetMap (Overpass)
Raleigh General Hospital,https://www.raleighgeneral.com/,,+1 304 256 4100,,Beckley,WV,37.7878116,-81.2017152,OpenStreetMap (Overpass)
Pocahontas Memorial Hospital,https://www.pmhwv.org/,,+1 304 799 7400,,Buckeye,,38.200629,-80.1089508,OpenStreetMap (Overpass)
Boone Memorial Hospital,https://www.bmh.org/,,+1 304 369 1230,,Madison,,38.047843,-81.8064663,OpenStreetMap (Overpass)
Plateau Medical Center,http://www.plateaumedicalcenter.com/,,+1 304 469 8600,,Oak Hill,,37.9722149,-81.1497821,OpenStreetMap (Overpass)
Huntington Veterans Affairs Medical Center,https://www.huntington.va.gov/,,+1 304 429 6741,,Huntington,,38.3770106,-82.5186961,OpenStreetMap (Overpass)
Saint Mary's Medical Center,https://www.st-marys.org/,,+1-304-526-1234,,Huntington,WV,38.431617,-82.4011439,OpenStreetMap (Overpass)
CAMC Teays Valley Hospital,https://www.camc.org/tvh,,+1 304 757 1700,,Hurricane,,38.4514015,-81.9527513,OpenStreetMap (Overpass)
Charleston Surgical Hospital,https://charlestonsurgicalhospital.com/,,+1 304 343 4371,,Charleston,,38.3435143,-81.629985,OpenStreetMap (Overpass)
Roane General Hospital,https://www.roanegeneralhospital.com/,,+1 304 927 4444,,Spencer,,38.8127269,-81.3691727,OpenStreetMap (Overpass)
Montgomery General Hospital,https://mghwv.com/,,+1 304 442 5151,,Montgomery,,38.1827717,-81.32436,OpenStreetMap (Overpass)
Summersville Regional Medical Center,https://www.summersvilleregional.org/,,+1 304 872 2891,,Summersville,,38.2925016,-80.8300389,OpenStreetMap (Overpass)
Webster County Memorial Hospital,https://www.wcmhwv.org/,,+1 304 847 5682,,Webster Springs,,38.4823788,-80.4106955,OpenStreetMap (Overpass)
Pleasant Valley Hospital,https://pvalley.org/,,+1 304 675 4340,,Point Pleasant,,38.8692438,-82.1228694,OpenStreetMap (Overpass)
Jackson General Hospital,https://jacksongeneral.com/,,+1 304 372 2731,,Riley,,38.8229169,-81.7298223,OpenStreetMap (Overpass)
Minnie Hamilton Health System,http://www.mhhcc.com/,,+1-304-354-9244,,Grantsville,WV,38.9232808,-81.0925887,OpenStreetMap (Overpass)
Camden Clark Medical Center,https://wvumedicine.org/camden-clark/,,+1 304 424 2344,WVU Medicine,Parkersburg,,39.270878,-81.560274,OpenStreetMap (Overpass)
Healthsouth Western Hills Rehabilitation Center,https://www.healthsouthwesternhills.com/,,+1 304 420 1300,,Parkersburg,,39.3060045,-81.5344918,OpenStreetMap (Overpass)
Wetzel County Hospital,http://wetzelcountyhospital.com/,,+1 304 455 8000,WVU Medicine,New Martinsville,,39.680859,-80.8498072,OpenStreetMap (Overpass)
Highland-Clarksburg Hospital,https://highlandhospitalwv.com/,,+1 304 969 3100,,Clarksburg,,39.2719206,-80.3719045,OpenStreetMap (Overpass)
Broaddus Hospital,https://www.davishealthsystem.org/thct.aspx?Id=9f8674f7-e996-446b-89c1-92573b50b441,,+1 304 457 1760,,Philippi,,39.1435886,-80.0621821,OpenStreetMap (Overpass)
Saint Joseph's Hospital of Buckhannon,http://www.stj.net/,,+1 304 473 2000,,Buckhannon,,38.9910046,-80.2368534,OpenStreetMap (Overpass)
Saint Helena Parish Hospital,http://www.sthelenaparishhospital.org/,,+1 225 222 6111,,Greensburg,,30.8311377,-90.6657283,OpenStreetMap (Overpass)
Swain County Hospital,https://www.myswaincommunity.com/,,+1 828 488 2155,Duke Lifepoint,Bryson City,,35.43459,-83.4447831,OpenStreetMap (Overpass)
Harris Regional Hospital,https://www.myharrisregional.com/,,+1 828 586 7000,,Sylva,NC,35.3855281,-83.2027195,OpenStreetMap (Overpass)
Transylvania Regional Hospital,http://www.mission-health.org/about-transylvania-regional-hospital.php,,+1 828 884 9111,,Brevard,,35.2559386,-82.7117956,OpenStreetMap (Overpass)
Saint Luke's Hospital,http://www.saintlukeshospital.com/,,+1 828 894 3311,,Columbus,,35.2397076,-82.2126569,OpenStreetMap (Overpass)
Pardee Hospital,https://www.pardeehospital.org/,,+1 828 696 1000,,Hendersonville,,35.3203103,-82.4685547,OpenStreetMap (Overpass)
Park Ridge Health,http://www.parkridgehealth.org/,,+1 828 684 8501,,Hendersonville,,35.389834,-82.4877987,OpenStreetMap (Overpass)
Mission Hospital,https://missionhealth.org/member-hospitals/mission/,,+1 828 213 1111,,Asheville,NC,35.5766287,-82.5493484,OpenStreetMap (Overpass)
Blue Ridge Regional Hospital,http://www.mission-health.org/about-blue-ridge-regional-hospital.php,,+1 828 213 1111,Mission Health,Spruce Pine,NC,35.9114917,-82.0622874,OpenStreetMap (Overpass)
Caldwell Memorial Hospital,https://www.caldwellmemorial.org/,,+1 828 757 5100,,Lenoir,,35.9104439,-81.5351198,OpenStreetMap (Overpass)
Northern Hospital of Surry County,http://www.northernhospital.com/,,+1 336 719 7000,,Mount Airy,,36.4889093,-80.6123545,OpenStreetMap (Overpass)
Hugh Chatham Memorial Hospital,https://www.hughchatham.org/,,+1 336 527 7000,,Elkin,,36.2618696,-80.8389907,OpenStreetMap (Overpass)
Davis Regional Medical Center,https://www.davisregional.com/,,+1 704 873 0281,,Statesville,NC,35.8190087,-80.8291856,OpenStreetMap (Overpass)
Roper Hospital - Berkeley,https://www.rsfh.com/outpatient-surgery/berkeley/,,+1 843 899 7700,Roper St. Francis,Moncks Corner,,33.1948741,-79.9821991,OpenStreetMap (Overpass)
CaroMont Regional Medical Center,https://www.caromonthealth.org/,,+1 704 834 2000,,Gastonia,NC,35.2720342,-81.1394273,OpenStreetMap (Overpass)
Carolinas ContinueCARE Hospital,https://continuecare.org/pineville/,,+1 704 667 8050,,Charlotte,,35.0943954,-80.8731504,OpenStreetMap (Overpass)
Atrium Health Pineville,http://www.carolinashealthcare.org/locations/carolinas-healthcare-system-pineville,,+1 704 667 1000,Atrium Health,Charlotte,NC,35.0920551,-80.8720393,OpenStreetMap (Overpass)
Matthews Medical Center,https://www.novanthealth.org/matthews-medical-center.aspx,,+1 704 384 6500,,Matthews,NC,35.1195617,-80.714603,OpenStreetMap (Overpass)
Carolinas HealthCare System NorthEast,http://www.carolinashealthcare.org/locations/carolinas-healthcare-system-northeast,,+1 704 403 3000,,Concord,NC,35.4374993,-80.6019844,OpenStreetMap (Overpass)
Charlotte Orthopedic Hospital,https://www.novanthealth.org/charlotte-orthopedic-hospital.aspx,,+1 704 316 2000,Novant Health,Charlotte,NC,35.2101312,-80.8231971,OpenStreetMap (Overpass)
Carolinas Medical Center-Mercy,http://www.carolinashealthcare.org/locations/carolinas-medical-center-mercy,,+1 704 304 5000,,Charlotte,,35.2096685,-80.8211001,OpenStreetMap (Overpass)
Novant Health Presbyterian Medical Center,https://www.novanthealth.org/presbyterian-medical-center.aspx,,+1 704 384 4000,Novant Health,Charlotte,,35.2124073,-80.8239116,OpenStreetMap (Overpass)
Forsyth Medical Center,https://www.novanthealth.org/forsyth-medical-center.aspx,,+1 336 718 5000,Novant Health,Winston-Salem,,36.07549,-80.2964624,OpenStreetMap (Overpass)
Wake Forest Baptist Medical Center,https://www.wakehealth.edu/,,+1 336 716 2011,,Winston-Salem,NC,36.0896737,-80.2676274,OpenStreetMap (Overpass)
Lexington Medical Center,https://lexington.wakehealth.edu/,,+1 336 248 5161,,Lexington,,35.8058096,-80.2869511,OpenStreetMap (Overpass)
Thomasville Medical Center,https://www.novanthealth.org/thomasville-medical-center.aspx,,+1 336 472 2000,Novant Health,Thomasville,NC,35.8795237,-80.1110736,OpenStreetMap (Overpass)
High Point Regional Hospital,https://www.highpointregional.com/,,+1 336 878 6000,,High Point,,35.9618701,-80.0135787,OpenStreetMap (Overpass)
The Moses H. Cone Memorial Hospital,https://www.conehealth.com/locations/moses-cone-hospital/,,+1 336 832 7000,Cone Health,Greensboro,,36.0921272,-79.7860754,OpenStreetMap (Overpass)
UNC Rockingham Health Care,https://www.uncrockingham.org/,,+1 336 623 9711,,Eden,,36.4949247,-79.7388893,OpenStreetMap (Overpass)
Annie Penn Hospital,https://www.conehealth.com/locations/annie-penn-hospital/,,+1 336 951 4000,Cone Health,Reidsville,,36.3536408,-79.6675063,OpenStreetMap (Overpass)
FirstHealth Montgomery Memorial Hospital,https://www.firsthealth.org/directory/hospitals-and-service-locations/firsthealth-montgomery-memorial-hospital,,+1 910 571 5000,FirstHealth of the Carolinas,Troy,,35.3647904,-79.8905801,OpenStreetMap (Overpass)
Anson Community Hospital,http://www.carolinashealthcare.org/locations/carolinas-healthcare-system-anson,,+1 704 994 4500,Carolinas HealthCare System Anson,Wadesboro,NC,34.9776094,-80.1101127,OpenStreetMap (Overpass)
Highsmith-Rainey Specialty Hospital,http://www.capefearvalley.com/hospitals/hrsh.html,,+1 910 615 1000,,Fayetteville,,35.0543009,-78.8884894,OpenStreetMap (Overpass)
Dosher Memorial Hospital,https://www.dosher.org/,,+1 910 457 3800,,Southport,,33.9292137,-78.0213462,OpenStreetMap (Overpass)
Brunswick Medical Center,https://www.novanthealth.org/brunswick-medical-center.aspx,,+1 910 721 1000,Novant Health,Bolivia,NC,34.031295,-78.2614559,OpenStreetMap (Overpass)
Columbus Regional Healthcare System,https://www.crhealthcare.org/,,+1 910 642 8011,Carolinas HealthCare System,Whiteville,NC,34.3374225,-78.6945247,OpenStreetMap (Overpass)
Bladen County Hospital,http://www.capefearvalley.com/bladen/home.html,,+1 910 862 5100,Cape Fear Valley Health,Elizabethtown,,34.6225587,-78.6080075,OpenStreetMap (Overpass)
Sampson Regional Medical Center,https://www.sampsonrmc.org/,,+1 910 592 8511,,Clinton,NC,35.0059996,-78.3244587,OpenStreetMap (Overpass)
Pender Memorial Hospital,https://www.nhrmc.org/locations/pender-memorial-hospital,,+1 910 300 4000,,Burgaw,NC,34.5504214,-77.9197964,OpenStreetMap (Overpass)
Vidant Duplin Hospital,https://www.vidanthealth.com/Duplin/,,+1 910 296 0941,,Kenansville,,34.9649741,-77.9618479,OpenStreetMap (Overpass)
Lenoir Memorial Hospital,https://www.lenoirmemorial.org/,,+1 252 522 7000,,Kinston,,35.2899477,-77.5833923,OpenStreetMap (Overpass)
Wayne County Memorial Hospital,http://www.waynehealth.org/,,+1 919 736 1110,,Goldsboro,,35.3986388,-77.9525646,OpenStreetMap (Overpass)
Wilson Medical Center,https://www.wilsonmedical.com/,,+1 252 399 8040,Duke Lifepoint,Wilson,,35.7190017,-77.943635,OpenStreetMap (Overpass)
Vidant Beaufort Hospital,https://www.vidanthealth.com/vidant/dynamic-detail.aspx?id=11780,,+1 252 975 4100,,Washington,,35.5492201,-77.0378452,OpenStreetMap (Overpass)
Vidant Bertie Hospital,https://www.vidanthealth.com/bertie/,,+1 252 794 6600,Vidant Health,Windsor,,35.9884866,-76.9289548,OpenStreetMap (Overpass)
Vidant Chowan Hospital,https://www.vidanthealth.com/chowan/,,+1 252 482 8451,,Edenton,,36.0698637,-76.6107701,OpenStreetMap (Overpass)
Vidant Roanoke-Chowan Hospital,https://www.vidanthealth.com/roanokechowan/,,+1 252 209 3000,,Ahoskie,,36.2856471,-76.9949682,OpenStreetMap (Overpass)
Our Community Hospital,http://www.och-bltc.org/,,+1 252 826 4144,,Scotland Neck,,36.1290982,-77.4292822,OpenStreetMap (Overpass)
Granville Medical Center,https://ghshospital.org/,,+1 919 690 3000,,Oxford,,36.3269489,-78.59262,OpenStreetMap (Overpass)
Central Regional Hospital,https://www.ncdhhs.gov/divisions/dsohf/central-regional-hospital-0,,+1 919 764 2000,,Butner,,36.1454353,-78.7717997,OpenStreetMap (Overpass)
Duke Regional Hospital,https://www.dukehealth.org/hospitals/duke-regional-hospital/home,,+1 919 470 4000,Duke Health,Durham,,36.0364926,-78.8995621,OpenStreetMap (Overpass)
Lenox Baker Children's Hospital,https://www.dukehealth.org/locations/lenox-baker-childrens-hospital,,+1 919 684 6669,,Durham,,36.0052601,-78.9497424,OpenStreetMap (Overpass)
Hilton Head Hospital,https://www.hiltonheadregional.com/,,+1 843 681 6122,,Hilton Head Island,,32.2237066,-80.7146402,OpenStreetMap (Overpass)
Beaufort Memorial Hospital,https://www.bmhsc.org/,,+1 877 532 6472,,Beaufort,,32.4168863,-80.6870832,OpenStreetMap (Overpass)
Coastal Carolina Hospital,https://www.coastalhospital.com/,,+1 843 784 8000,,Hardeeville,SC,32.3150456,-81.0538464,OpenStreetMap (Overpass)
Hampton Regional Medical Center,http://www.hamptonregional.com/,,+1 803 943 2771,,Varnville,,32.8529708,-81.0900777,OpenStreetMap (Overpass)
Allendale County Hospital,https://www.achospital.org/,,+1 803 632 3311,,Fairfax,,32.9652732,-81.2481009,OpenStreetMap (Overpass)
Colleton Medical Center,https://colletonmedical.com/,,+1 843 782 2000,,Walterboro,,32.9231146,-80.6700277,OpenStreetMap (Overpass)
Bamberg County Hospital,http://www.bambergcountyhospital.com/,,+1 803 245 4321,,Bamberg,,33.3077645,-81.0280958,OpenStreetMap (Overpass)
The Regional Medical Center,https://www.trmchealth.org/,,+1 803 395 2200,,Orangeburg,SC,33.5401406,-80.8305917,OpenStreetMap (Overpass)
Edgefield County Hospital,http://www.myech.org/,,+1 803 637 3174,,Edgefield,SC,33.778489,-81.9302091,OpenStreetMap (Overpass)
Abbeville Area Medical Center,https://www.abbevilleareamc.com/,,+1 864 366 5011,,Abbeville,SC,34.1573822,-82.381535,OpenStreetMap (Overpass)
Palmetto Lowcountry Behavioral Health,https://www.palmettobehavioralhealth.com/,,+1 843 747 5830,,Charleston,,32.8393642,-79.9743153,OpenStreetMap (Overpass)
Bon Secours Saint Francis Hospital,https://www.rsfh.com/st-francis-hospital/,,+1 843 402 1000,Roper St. Francis,Charleston,,32.8088776,-80.0417186,OpenStreetMap (Overpass)
East Cooper Medical Center,https://www.eastcoopermedctr.com/,,+1 843 881 0100,,Mount Pleasant,,32.8206354,-79.8507807,OpenStreetMap (Overpass)
Summerville Medical Center,https://tridenthealthsystem.com/locations/summerville-medical-center/,,+1 843 832 5000,HCA,Summerville,,32.9661601,-80.1576075,OpenStreetMap (Overpass)
Williamsburg Regional Hospital,http://www.wmbgrh.com/,,+1 843 355 8888,,Kingstree,,33.6601513,-79.8183157,OpenStreetMap (Overpass)
Tidelands Georgetown Memorial Hospital,https://www.tidelandshealth.org/locations/profile/?id=3,,+1 843 527 7000,Tidelands Health,Georgetown,,33.3793938,-79.2841054,OpenStreetMap (Overpass)
Lake City Community Hospital,http://www.lcchospital.org/,,+1 843 374 2036,,Lake City,,33.8806825,-79.7607596,OpenStreetMap (Overpass)
Prisma Health Toumey Hospital,https://www.palmettohealth.org/locations-directions/hospitals/tuomey,,+1 803 774 9000,Prisma Health,Sumter,,33.9230832,-80.3429585,OpenStreetMap (Overpass)
McLeod Health Cheraw,https://www.mcleodhealth.org/locations/mcleod-cheraw/,,+1 843 537 7881,McLeod Health,Cheraw,SC,34.694938,-79.9196803,OpenStreetMap (Overpass)
Medical University of South Carolina: Florence,https://muschealth.org/locations/florence-medical-center,,+1 843 674 5000,Medical University of South Carolina,Florence,,34.1599129,-79.7526594,OpenStreetMap (Overpass)
McLeod Regional Medical Center,https://www.mcleodhealth.org/,,+1 843 777 2000,McLeod Health,Florence,,34.1975769,-79.7575817,OpenStreetMap (Overpass)
Springs Memorial Hospital,https://www.springsmemorial.com/,,+1 803 286 1214,,Lancaster,,34.7178281,-80.7883713,OpenStreetMap (Overpass)
KershawHealth Medical Center,http://kershawhealth.org/,,+1 803 432 4311,,Camden,,34.2533008,-80.5907545,OpenStreetMap (Overpass)
Carolina Pines Regional Medical Center,https://www.cprmc.com/,,+1 843 339 2100,,Hartsville,SC,34.3502375,-80.1047171,OpenStreetMap (Overpass)
Lexington Medical Center,https://www.lexmed.com/,,+1 803 791 2000,,West Columbia,,34.0068495,-81.1137486,OpenStreetMap (Overpass)
Three Rivers Behavioral Health,https://www.threeriversbehavioral.org/,,+1 866 796 9911,,West Columbia,,34.0070789,-81.1181801,OpenStreetMap (Overpass)
Prisma Health Richland Hospital,https://prismahealth.org/locations/hospitals/richland-hospital,,+1 803 434 7000,Prisma Health,Columbia,SC,34.0277186,-81.0325582,OpenStreetMap (Overpass)
HealthSouth Rehabilitation Hospital of Columbia,http://www.healthsouthcolumbia.com/,,+1 803 254 7777,,Columbia,,34.0278059,-81.0287919,OpenStreetMap (Overpass)
MUSC Health Columbia Medical Center Downtown,https://locations.muschealth.org/sc/columbia/2435-forest-drive-fac656,,+1 803 256 5300,MUSC Health,Columbia,,34.0151173,-81.0130623,OpenStreetMap (Overpass)
Prisma Health Baptist Hospital,https://prismahealth.org/locations/hospitals/baptist-hospital,,+1 803 296 5010,Prisma Health,Columbia,SC,34.0071839,-81.03353,OpenStreetMap (Overpass)
Fairfield Memorial Hospital,https://www.fairfieldmemorial.com/,,+1 803 635 5548,,Winnsboro,,34.3725075,-81.099043,OpenStreetMap (Overpass)
Chester Regional Medical Center,https://www.chesterregional.com/,,+1 803 581 3151,,Chester,SC,34.6842973,-81.1831272,OpenStreetMap (Overpass)
New Hope Carolinas,https://www.newhopetreatment.com/services/new-hope-carolinas/,,+1 877 328 9300,,Rock Hill,,34.9507245,-81.0396801,OpenStreetMap (Overpass)
WellStar West Georgia Medical Center,http://www.wghealth.org/,,+1 706 882 1411,WellStar Health System,LaGrange,,33.0321992,-85.0585974,OpenStreetMap (Overpass)
Cherokee Medical Center,http://maryblackgaffney.com/,,+1 864 487 4271,,Gaffney,,35.089777,-81.6342963,OpenStreetMap (Overpass)
Union Medical Center,https://www.spartanburgregional.com/locations/union-medical-center/,,+1 864 301 2000,,Union,,34.7124563,-81.6292844,OpenStreetMap (Overpass)
Newberry County Memorial Hospital,https://www.newberryhospital.org/,,+1 803 276 7570,,Newberry,,34.2903912,-81.6060696,OpenStreetMap (Overpass)
Laurens County Memorial Hospital,https://www.ghs.org/locations/laurens/,,+1 864 833 9100,,Clinton,,34.4812347,-81.9406274,OpenStreetMap (Overpass)
Spartanburg Medical Center,https://www.spartanburgregional.com/locations/spartanburg-medical-center/,,+1 864 560 6000,Spartanburg Regional Healthcare System,Spartanburg,,34.9669789,-81.9398695,OpenStreetMap (Overpass)
Spartanburg Medical Center - Mary Black Campus,https://www.spartanburgregional.com/locations/spartanburg-medical-center-mary-black-campus,,+1 864 573 3000,Spartanburg Regional Healthcare System,Spartanburg,SC,34.9774607,-81.8969814,OpenStreetMap (Overpass)
AdventHealth Wesley Chapel,https://www.adventhealth.com/hospital/adventhealth-wesley-chapel,,+1 813 929 5000,AdventHealth,Wesley Chapel,,28.1947879,-82.3507725,OpenStreetMap (Overpass)
Oconee Memorial Hospital,https://www.ghs.org/locations/oconee-medical-campus/oconee-memorial-hospital/,,+1 864 882 3351,Greenville Health System,Seneca,,34.6953215,-82.9871294,OpenStreetMap (Overpass)
Patrick B. Harris Psychiatric Hospital,http://www.patrickbharris.com/,,+1 864 231 2600,,Anderson,,34.4771316,-82.5676419,OpenStreetMap (Overpass)
Saint Francis Medical Center,https://stfran.com/,,+1 318 966 4000,,Monroe,,32.4993507,-92.1142325,OpenStreetMap (Overpass)
Rush Foundation Hospital,https://www.rushhealthsystems.org/rfh/,,+1 601 703 9393,Rush Health Systems,Meridian,,32.3698251,-88.6967505,OpenStreetMap (Overpass)
HCA Florida - Northside Hospital,https://northsidehospital.com/,,+1 727 521 4411,HCA,Saint Petersburg,,27.8261172,-82.7020244,OpenStreetMap (Overpass)
Wayne Memorial Hospital,https://wmhweb.com/,,+1 912 427 6811,,Jesup,,31.6008599,-81.8995331,OpenStreetMap (Overpass)
New Orleans East Hospital,http://www.noehospital.org/,,+1 504 592 6600,LCMC Health,New Orleans,,30.029192,-89.9748993,OpenStreetMap (Overpass)
DeKalb Regional Medical Center,https://dekalbregional.com/,,+1 256 845 3150,,Fort Payne,AL,34.4422111,-85.75674,OpenStreetMap (Overpass)
Acadia General Hospital,https://www.lafayettegeneral.com/our_facilities/main_facilities/acadia_general_hospital.aspx,,+1 337 783 3222,Lafayette General Health,Crowley,,30.2265986,-92.3635805,OpenStreetMap (Overpass)
St. Vincent's St. Clair,http://stvhs.com/stclair/,,+1-205-338-3301,St. Vincent's Health System,Pell City,AL,33.6045681,-86.3012865,OpenStreetMap (Overpass)
AdventHealth Redmond,https://redmondregional.com/,,+1 706 291 0291,AdventHealth Group,Rome,,34.2770165,-85.1959916,OpenStreetMap (Overpass)
Madison Hospital,https://www.madisonalhospital.org/,,+1 256 265 2012,Huntsville Hospital Health System,Madison,,34.747558,-86.7646163,OpenStreetMap (Overpass)
Lakeland Regional Health Medical Center,https://mylrh.org/,,+1 863 687 1100,,Lakeland,,28.0601997,-81.9552774,OpenStreetMap (Overpass)
Halifax Health Medical Center - Port Orange,https://halifaxhealth.org/locations/halifax-health-medical-center-port-orange/,,+1 386 425 4700,,Port Orange,FL,29.1261411,-81.0086442,OpenStreetMap (Overpass)
East Alabama Medical Center,https://www.eamc.org/,,+1 334 749 3411,East Alabama Medical Center,Opelika,,32.6401494,-85.4038314,OpenStreetMap (Overpass)
Anderson Regional Medical Center - South,https://www.andersonregional.org/,,,Anderson Regional Medical Center,Meridian,,32.3678651,-88.698966,OpenStreetMap (Overpass)
Lackey Memorial Hospital,https://www.lackeymemorialhospital.com/,,+1 601 469 4151,,Forest,,32.365979,-89.4696832,OpenStreetMap (Overpass)
Scott County Hospital,http://www.scottregional.org/,,+1 601 732 6301,Rush Health Systems,Morton,,32.3440915,-89.6724174,OpenStreetMap (Overpass)
Merit Health Rankin,https://www.merithealthrankin.com/,,+1 601 825 2811,,Brandon,,32.2864147,-90.034808,OpenStreetMap (Overpass)
Merit Health River Oaks,https://www.merithealthriveroaks.com/,,+1 601 932 1030,Merit Health,Flowood,,32.3254746,-90.1053522,OpenStreetMap (Overpass)
Merit Health Woman's Hospital,https://www.merithealthwomanshospital.com/,,+1 601 932 1000,Merit Health,Flowood,,32.3296487,-90.1014632,OpenStreetMap (Overpass)
University of Mississippi Medical Center,https://www.umc.edu/,,+1 601 984 1000,,Jackson,,32.3309945,-90.1722001,OpenStreetMap (Overpass)
G.V. (Sonny) Montgomery VA Medical Center,https://www.jackson.va.gov/,,+1-601-362-4471,,Jackson,MS,32.3287498,-90.1668727,OpenStreetMap (Overpass)
Saint Dominic Hospital,https://www.stdom.com/,,+1 601 200 2000,,Jackson,,32.3332585,-90.1651368,OpenStreetMap (Overpass)
Baptist Medical Center,http://mbhs.org/,,+1-800-948-6262,Mississippi Baptist Health Systems,Jackson,MS,32.314756,-90.1800646,OpenStreetMap (Overpass)
Merit Health Central,https://www.merithealthcentral.com/,,+1 601 376 1000,Merit Health,Jackson,,32.2877223,-90.2550102,OpenStreetMap (Overpass)
Merit Health River Region,https://www.merithealthriverregion.com/,,+1 601 883 5000,Merit Health,Vicksburg,,32.374309,-90.8246993,OpenStreetMap (Overpass)
Merit Health Natchez,https://www.merithealthnatchez.com/,,+1 601 443 2100,Merit Health,Natchez,,31.5280454,-91.3915461,OpenStreetMap (Overpass)
Field Health System,https://fhsms.org/,,+1 601 890 0500,,Centreville,,31.0822042,-91.0586985,OpenStreetMap (Overpass)
Franklin County Memorial Hospital,https://www.fcmh.net/,,+1 601 384 5801,,Meadville,,31.4732828,-90.8843577,OpenStreetMap (Overpass)
Copiah County Medical Center,http://myccmc.org/,,+1 601 574 7000,,Hazlehurst,,31.871442,-90.4146487,OpenStreetMap (Overpass)
King's Daughters Medical Center,https://kdmc.org/,,+1 601 833 6011,,Brookhaven,,31.588761,-90.4579249,OpenStreetMap (Overpass)
Southwest Mississippi Regional Medical Center,https://www.smrmc.com/,,+1 601 249 5500,Southwest Health System,McComb,,31.2510416,-90.4742414,OpenStreetMap (Overpass)
Jack Hughston Memorial Hospital,https://www.hughston.com/jhmh-home/,,+1 334 732 3000,Hughston Clinic,Phenix City,AL,32.5079261,-85.0087892,OpenStreetMap (Overpass)
Walthall General Hospital,https://www.forresthealth.org/our-locations/walthall-county-general-hospital/,,+1 601 876 2122,Forrest Health,Tylertown,,31.1204386,-90.1557121,OpenStreetMap (Overpass)
Marion General Hospital,https://www.forresthealth.org/our-locations/marion-general-hospital/,,+1 601 736 6303,Forrest Health,Columbia,,31.2560943,-89.8056962,OpenStreetMap (Overpass)
Lawrence County Hospital,https://www.smrmc.com/locations/lawrence-county-hospital/,,+1 601 249 5500,Southwest Mississippi Regional Medical Center,Monticello,,31.5541338,-90.0993914,OpenStreetMap (Overpass)
Jefferson Davis Community Hospital,https://www.forresthealth.org/our-locations/jefferson-davis-community-hospital/,,+1 601 792 4276,Forrest Health,Prentiss,,31.5944529,-89.8724057,OpenStreetMap (Overpass)
Magee General Hospital,https://mghosp.org/,,+1 601 849 5070,,Magee,,31.8710428,-89.7289907,OpenStreetMap (Overpass)
Jasper General Hospital,https://www.jaspergeneralhospital.com/,,+1 601 764 2101,,Bay Springs,,31.9770028,-89.2916877,OpenStreetMap (Overpass)
H. C. Watkins Memorial Hospital,http://www.watkinsmemorialhospital.com/,,+1 601 776 6925,Rush Health Systems,Quitman,,32.0306351,-88.7264755,OpenStreetMap (Overpass)
Wayne General Hospital,https://www.waynegeneralhospital.org/,,+1 601 735 5151,,Waynesboro,,31.6731884,-88.6339935,OpenStreetMap (Overpass)
Covington County Hospital,https://www.covingtoncountyhospital.com/,,+1 601 765 6711,,Collins,,31.637212,-89.5547449,OpenStreetMap (Overpass)
Perry County General Hospital,https://www.pcghosp.com/,,+1 601 788 6316,,Richton,MS,31.346163,-88.9380672,OpenStreetMap (Overpass)
WellStar Paulding Hospital,https://www.wellstar.org/locations/pages/wellstar-paulding-hospital.aspx,,+1-470-644-7000,WellStar Health System,Hiram,GA,33.9009023,-84.7816768,OpenStreetMap (Overpass)
Greene County Hospital,https://www.georgeregional.com/Greene-County-Hospital,,+1 601 394 4135,George Regional Health System,Leakesville,,31.1541117,-88.5629953,OpenStreetMap (Overpass)
George Regional Hospital,https://georgeregional.com/,,+1 601 947 3161,George Regional Health System,Lucedale,,30.9221078,-88.5942489,OpenStreetMap (Overpass)
Memorial Hospital Stone County,https://wearememorial.com/locations/memorial-hospital-stone-county/,,+1 601 928 6600,,Wiggins,,30.8447217,-89.115775,OpenStreetMap (Overpass)
Pearl River County Hospital,http://www.prc-med.com/,,+1 601 795 4543,,Poplarville,,30.8562724,-89.5420505,OpenStreetMap (Overpass)
