name,website,email,phone,bio,city,state,lat,lon,source
Harris Methodist Springwood Hospital,https://www.texashealth.org/location/texas-health-springwood-behavioral-health-hospital-heb,,+1 682 236 6023,Texas Health,Bedford,,32.834508,-97.1230555,OpenStreetMap (Overpass)
Cornerstone Hospital Austin,https://www.chghospitals.com/austin/,,+1-512-706-1900,Cornerstone Healthcare Group,Austin,,30.3118919,-97.7433271,OpenStreetMap (Overpass)
Red River Hospital,https://www.redriverhospital.com/,,+1-940-341-2464,,Wichita Falls,TX,33.9063162,-98.5013346,OpenStreetMap (Overpass)
Devereux Advanced Behavioral Health Texas League City,https://www.devereux.org/site/SPageServer/?pagename=tx_index,,+1 800 373 0011,Devereux Advanced Behavioral Health,League City,,29.5069913,-95.1066598,OpenStreetMap (Overpass)
Cornerstone Hospital Houston – Bellaire,https://www.chghospitals.com/houston-bellaire/,,+1-713-295-5300,Cornerstone Healthcare Group,Houston,,29.70801,-95.47327,OpenStreetMap (Overpass)
Plaza Specialty Hospital,https://plazaspecialtyhospital.com/,,+1-713-285-1000,HCA,Houston,TX,29.7233769,-95.386876,OpenStreetMap (Overpass)
Methodist Children's Hospital,https://sahealth.com/locations/methodistchildrens/,,+1-210-575-7000,HCA,San Antonio,,29.507212,-98.572054,OpenStreetMap (Overpass)
Plano Specialty Hospital,http://specialtyhospitalplano.com/,,+1 972 758 5200,,Plano,,33.021349,-96.7691985,OpenStreetMap (Overpass)
Heart Hospital of Austin,https://stdavids.com/location/heart-hospital-of-austin,,+1-512-407-7000,HCA,Austin,,30.30591,-97.7410796,OpenStreetMap (Overpass)
HealthSouth Sugar Land Rehabilitation,https://www.healthsouthsugarland.com/,,+1 281 276 7574,Encompass Health,Sugar Land,,29.6044106,-95.6332343,OpenStreetMap (Overpass)
Texas Heart Institute - Denton A. Cooley Building,https://www.texasheart.org/,,+1-832-355-4011,Texas Heart Institute,Houston,TX,29.7079305,-95.399419,OpenStreetMap (Overpass)
Medical City Frisco A Medical Center Of Plano Facility,https://medicalcityhealthcare.com/locations/medical-city-frisco/,,,,Frisco,,33.1509841,-96.8390046,OpenStreetMap (Overpass)
Haven Behavioral Hospital Of Frisco,https://www.havenfrisco.com,,+1 469 535 8000,,Frisco,,33.1506258,-96.8378454,OpenStreetMap (Overpass)
El Paso Psychiatric Center,https://dshs.texas.gov/mhhospitals/default.shtm,,,Texas Department of State Health Services,El Paso,TX,31.7719999,-106.43622,OpenStreetMap (Overpass)
Select Specialty Hospital - Dallas Downtown,https://dallasdowntown.selectspecialtyhospitals.com/,,+1-469-801-4500,Select Specialty Hospital,Dallas,TX,32.790245,-96.7800903,OpenStreetMap (Overpass)
Baptist Emergency Hospital,http://www.baptistemergencyhospital.com/thousand-oaks/,,+1-210-402-4092,,San Antonio,,29.5879659,-98.4734443,OpenStreetMap (Overpass)
Northwest Hills Surgical Hospital,https://northwesthillssurgical.com/,,+1-512-346-1994,Surgical Care Affiliates,Austin,,30.3502455,-97.7517664,OpenStreetMap (Overpass)
Doctors Hospital at Renaissance,https://www.dhr-rgv.com/Healthcare-Services/Rehabilitation-Hospital,,+1-956-362-3550,Doctors Hospital at Renaissance,Edinburg,,26.2526722,-98.206138,OpenStreetMap (Overpass)
El Paso Children's Hospital,https://elpasochildrens.org/,,+1-915-298-5444,,El Paso,TX,31.771455,-106.4339563,OpenStreetMap (Overpass)
The Heart Hospital Baylor Plano,https://www.thehearthospitalbaylor.com/,,+1 469 814 3278,Baylor Scott & White Health,Plano,,33.0147813,-96.7899585,OpenStreetMap (Overpass)
North Central Surgical Center,https://www.northcentralsurgical.com/,,+1-214-265-2810,,Dallas,,32.8749243,-96.7712045,OpenStreetMap (Overpass)
Texas Health Heart & Vascular Hospital Arlington,http://texashealthheartandvascular.org/,,+1-817-960-3500,Texas Health,Arlington,TX,32.7487164,-97.1164531,OpenStreetMap (Overpass)
Aspire Hospital,https://www.aspirehealthcorp.com/,,+1 936 647 3500,,Conroe,,30.2846283,-95.4801165,OpenStreetMap (Overpass)
"Westbridge Recovery Center, Inc",https://www.txwbrc.com/,,+1-832-510-8305,,Porter,TX,30.072272,-95.1722775,OpenStreetMap (Overpass)
Hopkins Minor Emergency Center,https://minoremergencynow.com/,,+1-903-885-2911,,Sulphur Springs,TX,33.1256992,-95.5993708,OpenStreetMap (Overpass)
YAKER Hair Restoration + Med Spa,https://www.yakermd.com/,yaker@yakermd.com,+1 972-468-8301,"hair-micropigmentation, hair-transplant, hair-loss-treatments, fue-hair",Plano,TX,33.0413529,-96.7938154,OpenStreetMap (Overpass)
Genesis Medical Group - Tomball,https://www.genesisdoctors.com/,scheduling@nwdc.com,+1-281-440-5300,,Tomball,TX,30.0401173,-95.6088555,OpenStreetMap (Overpass)
CH First Emergency Room,https://www.ch1er.com,info@ch1er.com,+1-281-343-3134,CH First Emergency Room,Deer Park,TX,29.7023897,-95.1012625,OpenStreetMap (Overpass)
Moody Neurorehabilitation Institute at TideWay,https://moodyneuro.org/location/tideway/,ContactAdmissions@MoodyNeuro.org,+1 409-741-3266,"Since 1982, Moody Neuro has pioneered post-acute brain injury treatment and rehabilitation using innovative techniques, strategies and therapies.",Galveston,TX,29.2669776,-94.8327567,OpenStreetMap (Overpass)
Moody Neurorehabilitation Institute in Galveston,https://moodyneuro.org/location/galveston/,ContactAdmissions@MoodyNeuro.org,+1 409-762-6661,"Since 1982, Moody Neuro has pioneered post-acute brain injury treatment and rehabilitation using innovative techniques, strategies and therapies.",Galveston,TX,29.3071529,-94.7846504,OpenStreetMap (Overpass)
Epic Strides,https://epicstrides.net/,angel@epicstrides.net,+1 972-596-0035,,Plano,TX,33.0567737,-96.7738864,OpenStreetMap (Overpass)
Action Behavior Centers - ABA Therapy for Autism,https://www.actionbehavior.com/locations/aba-therapy-westover-hills-tx/,notifications@actionbehavior.com,+1-210-775-2222,,San Antonio,TX,29.4618306,-98.6899761,OpenStreetMap (Overpass)
Action Behavior Centers - ABA Therapy for Autism,https://www.actionbehavior.com/locations/aba-therapy-hutto-tx/,,+1 512-879-4100,,Hutto,TX,30.533115,-97.5635988,OpenStreetMap (Overpass)
Action Behavior Centers - ABA Therapy for Autism,https://www.actionbehavior.com/locations/aba-therapy-mansfield-owens-court-tx/,,+1 682-224-7600,"Services:Center-based Autism Therapy (ABA Therapy), Assessment, Autism Diagnostic Observation Schedule Assessment (ADOS Assessment), ABC at Home (Home-based Therapy)",Mansfield,TX,32.5809117,-97.1797587,OpenStreetMap (Overpass)
PS Med Spa,https://www.psmedspa.com,,+1-281-819-1147,,Houston,TX,29.5840632,-95.1531828,OpenStreetMap (Overpass)
The Hospital at Westlake Medical Center,https://www.westlakemedical.com/,,+1-512-327-0000,,Austin,TX,30.2958856,-97.826026,OpenStreetMap (Overpass)
Oceans Behavioral Hospital Of Waco,https://oceanshealthcare.com/ohc-location/waco/,,+1 254 870 4874,,Waco,TX,31.4875737,-97.1642517,OpenStreetMap (Overpass)
Sacred Oak Medical Center,https://www.sacredoakmedical.com,,+1 281 241 6440,,Houston,TX,29.6241206,-95.1426119,OpenStreetMap (Overpass)
Palms Behavioral Health,https://www.palmsbh.com,,+1 956 365 2600,,Harlingen,TX,26.1635742,-97.6721623,OpenStreetMap (Overpass)
Perimeter Behavioral Hospital Of Arlington,https://www.perimeterhealthcare.com/arlington,,+1 817 662 6341,,Arlington,TX,32.6280499,-97.1778806,OpenStreetMap (Overpass)
Westpark Springs,https://www.westparksprings.com,,+1 832 535 2770,,Richmond,TX,29.6943822,-95.7610781,OpenStreetMap (Overpass)
Rio Vista Behavioral Health,https://www.riovistabehavioral.com,,+1-915-209-4513,,El Paso,TX,31.8801014,-106.5737217,OpenStreetMap (Overpass)
Oceans Behavioral Hospital Of Pasadena,https://oceanshealthcare.com/ohc-location/pasadena/,,+1 832 821 4982,,Pasadena,TX,29.6508561,-95.1700085,OpenStreetMap (Overpass)
Vibra Specialty Hospital of Desoto,https://vshdesoto.com,,+1 972 298 1100,,Desoto,TX,32.6447004,-96.8834977,OpenStreetMap (Overpass)
Oceans Behavioral Hospital Of Lufkin,https://oceanshealthcare.com/ohc-location/lufkin/,,+1 936 632 2276,,Lufkin,TX,31.3070509,-94.7457683,OpenStreetMap (Overpass)
Medical Behavioral Hospital Of Clear Lake,https://www.pphealthplan.com/facilities/medical-behavioral-hospital-of-clear-lake-llc/,,+1 281 606 3517,,Houston,TX,29.5548362,-95.116592,OpenStreetMap (Overpass)
Eating Recovery Center Dallas / Plano,https://www.eatingrecoverycenter.com/recovery-centers/dallas,,+1 469 499 3900,,Plano,TX,33.0708126,-96.8016974,OpenStreetMap (Overpass)
Mesa Springs,https://mesasprings.com,,+1-817-292-4600,,Fort Worth,TX,32.6398134,-97.4128976,OpenStreetMap (Overpass)
Cedar Crest Hospital,https://www.cedarcresthospital.com,,+1 254 939 2100,,Belton,TX,31.0214097,-97.4770966,OpenStreetMap (Overpass)
First Baptist Medical Center,https://www.fbmcdallas.com,,+1-469-329-3700,,Dallas,TX,32.8884379,-96.7665543,OpenStreetMap (Overpass)
Oceans Behavioral Hospital Of Katy,https://oceanshealthcare.com/ohc-location/katy/,,+1 281 492 8888,,Katy,TX,29.7779641,-95.7485405,OpenStreetMap (Overpass)
Oceans Behavioral Hospital Of Longview,https://oceanshealthcare.com/ohc-location/longview/,,+1 903 212 3105,,Longview,TX,32.5373322,-94.7345276,OpenStreetMap (Overpass)
Woodlands Specialty Hospital,https://www.woodlandsspecialtyhospital.com,,+1 281 602 8160,,The Woodlands,TX,30.1309274,-95.4430548,OpenStreetMap (Overpass)
Oceans Behavioral Hospital Of Abilene,https://oceanshealthcare.com/ohc-location/abilene/,abileneinfo@oceanshealthcare.com,+1-325-691-0030,,Abilene,TX,32.399967,-99.739311,OpenStreetMap (Overpass)
The Hospitals Of Providence Northeast Campus,https://www.thehospitalsofprovidence.com/locations/detail/northeast-campus,,+1-281-292-2450,,,,31.9378427,-106.406735,OpenStreetMap (Overpass)
Altus Lumberton Hospital,https://altusemergencylumberton.com,,,,Lumberton,TX,30.2618693,-94.2210199,OpenStreetMap (Overpass)
Nexus Childrens Hospital - The Woodlands Campus,https://nexushealthsystems.com/services/childrens-hospital/,,,,Spring,TX,30.1723724,-95.4606595,OpenStreetMap (Overpass)
Legent Hospital For Special Surgery,https://www.legenthealth.com/locations/legent-hospital-for-special-surgery,,,,Plano,TX,33.0013974,-96.7718686,OpenStreetMap (Overpass)
River Oaks Hospitals And Clinics,https://www.rohc.care,,+1 713 330 3887,,Houston,TX,29.731067,-95.4450385,OpenStreetMap (Overpass)
Lone Star Behavioral Health Cypress,https://www.lonestarbehavioralhealth.com,,+1 281 516 6186,,Cypress,TX,30.0242799,-95.6627709,OpenStreetMap (Overpass)
Sugarland Rehab Hospital,https://sugarlandrehabhospital.com,,+1 281 766 9002,,Sugar Land,TX,29.5874043,-95.6426219,OpenStreetMap (Overpass)
United Memorial Medical Center - Sugar Land Hospital,https://ummc.care/ummcsugarland,,+1 281 238 3900,,Sugar Land,TX,29.6053469,-95.6360927,OpenStreetMap (Overpass)
Canyon Creek Behavioral Health,https://canyoncreekbh.com,,+1 512 569 3261,,Temple,TX,31.0594214,-97.3692173,OpenStreetMap (Overpass)
Christus Southeast Texas Orthopedic Specialty Center,https://www.beaumontbone.com,,+1 409 838 0346,,Beaumont,TX,30.0833828,-94.1398084,OpenStreetMap (Overpass)
Nexus Specialty Hospital Shenandoah Campus,https://nexushealthsystems.com/services/specialty-hospital/,,+1 281 364 0317,,Shenandoah,TX,30.1887498,-95.4601801,OpenStreetMap (Overpass)
Texas Surgical Hospital,https://txsurgical.com,,+1 972 820 2600,,Plano,TX,33.0316346,-96.8540749,OpenStreetMap (Overpass)
Solara Specialty Hospitals Harlingen - Brownsville,https://www.chghospitals.com/location-brownsville,,+1 956 546 0808,,Brownsville,TX,25.9738093,-97.5098892,OpenStreetMap (Overpass)
Psychiatric Emergency Treatment Center,https://mentalhealthtx.org/mt/facilities/tri-county-behavioral-healthcare-psychiatric-emergency-treatment-center/,,+1 936 521 6100,,Conroe,TX,30.3099934,-95.4640564,OpenStreetMap (Overpass)
Schleicher County Medical Center,https://scmchealth.com,,+1 325 853 2507,,Eldorado,TX,30.8630019,-100.6029941,OpenStreetMap (Overpass)
Baptist Neighborhood Hospital Schertz,https://www.baptistneighborhoodhospital.com/locations/schertz/,,,,Schertz,TX,29.5943161,-98.2900862,OpenStreetMap (Overpass)
Reba McEntire Center For Rehabilitation,https://www.texomamedicalcenter.net/inpatient-rehabilitation,,+1 903 416 1000,,Denison,TX,33.7702177,-96.5512811,OpenStreetMap (Overpass)
PAM Rehabilitation Hospital Of Clear Lake,https://pamhealth.com/facilities/find-facility/rehabilitation-hospitals/pam-rehabilitation-hospital-clear-lake,,+1 832 224 9500,,Webster,TX,29.5432769,-95.1200486,OpenStreetMap (Overpass)
Stat Specialty Hospital,https://statspecialtyhospital.com,,+1 830 498 3000,,Del Rio,TX,29.4000585,-100.9059,OpenStreetMap (Overpass)
Patients Emergency Room,https://patientser.com,,+1 281 576 0555,,Baytown,TX,29.8221352,-94.9029286,OpenStreetMap (Overpass)
PAM Specialty Hospital Of Corpus Christi Bayfront,https://pamhealth.com/facilities/find-facility/specialty-hospitals/PAM-Specialty-Hospital-Corpus-Christi-Bayfront,,+1 361 500 0565,,Corpus Christi,TX,27.7893756,-97.3957634,OpenStreetMap (Overpass)
Las Palmas Rehabilitation Hospital A Campus Of LPDS Healthcare,https://laspalmasdelsolhealthcare.com,,,,El Paso,TX,31.7890532,-106.508826,OpenStreetMap (Overpass)
South Plains Rehab Hospital - An Affiliate Of UMC And Encompass,https://encompasshealth.com/locations/southplainsrehab,,+1-806-507-3500,,Lubbock,TX,33.6028898,-101.9284584,OpenStreetMap (Overpass)
Baylor Scott And White Institute For Rehabilitation - Lakeway,https://www.bswrehab.com/locations/inpatient/lakeway/,,,,Lakeway,TX,30.3451048,-97.9701022,OpenStreetMap (Overpass)
PAM Specialty Hospital Of New Braunfels,https://pamhealth.com/facilities/find-facility/specialty-hospitals/PAM-Specialty-Hospital-New-Braunfels,,+1 830 627 7600,,New Braunfels,TX,29.7292694,-98.1027419,OpenStreetMap (Overpass)
New Braunfels Regional Rehabilitation Hospital,https://nbrrh.ernesthealth.com,,+1 830 625 6700,,New Braunfels,TX,29.735156,-98.0952345,OpenStreetMap (Overpass)
Saint Luke's Health - Springwoods Village Hospital,https://locations.stlukeshealth.org/location/springwoods-village-hospital,,,,Spring,TX,30.0906083,-95.4489376,OpenStreetMap (Overpass)
Baptist Neighborhood Hospital Zarzamora,https://www.baptisthealthsystem.com/locations/detail/baptist-neighborhood-hospital---zarzamora,,+1-210-572-2955,,,,29.3521004,-98.5330399,OpenStreetMap (Overpass)
Memorial Hermann Rehabilitation Hospital Katy,https://memorialhermann.org/locations/rehabilitation-hospital-katy,,+1 281 579 5678,,Katy,TX,29.7757655,-95.7457993,OpenStreetMap (Overpass)
Everest Rehabilitation Hospital Temple,https://everestrehab.com/hospitals/temple-tx/,,,,Temple,TX,31.067416,-97.3507864,OpenStreetMap (Overpass)
Encompass Health Rehabilitation Hospital Vision Park,https://encompasshealth.com/locations/houston/visionparkrehab,,+1 936 444 1700,,Shenandoah,TX,30.190023,-95.4584922,OpenStreetMap (Overpass)
Methodist Midlothian Medical Center,https://www.methodisthealthsystem.org/methodist-midlothian-medical-center/,,+1 469 846 2000,,,,32.4689565,-96.9820021,OpenStreetMap (Overpass)
Encompass Health Rehabilitation Hospital Of Richardson,https://encompasshealth.com/locations/richardsonrehab,,,Encompass Health,,,32.9979828,-96.7549376,OpenStreetMap (Overpass)
Encompass Health Rehabilitation Hospital Of The Woodlands,https://encompasshealth.com/locations/houston/thewoodlandsrehab,,+1 281 364 2000,,Shenandoah,TX,30.1856733,-95.4544562,OpenStreetMap (Overpass)
First Surgical Hospital,https://www.firstsurgical.com,,+1 713 275 1111,,Bellaire,TX,29.7099774,-95.4626713,OpenStreetMap (Overpass)
Encompass Health Rehabilitation Hospital Of Pearland,https://encompasshealth.com/pearlandrehab,,,,Pearland,TX,29.5729058,-95.3898333,OpenStreetMap (Overpass)
Baylor Scott And White Medical Center - Lakeway,https://www.bswhealth.com/locations/lakeway-hospital,,,,Lakeway,TX,30.3330267,-97.9716131,OpenStreetMap (Overpass)
Baptist Neighborhood Hospital Kelly,https://www.baptisthealthsystem.com/locations/detail/baptist-emergency-hospital---kelly,,,,San Antonio,TX,29.4027685,-98.5477659,OpenStreetMap (Overpass)
Altus Houston Hospital - Celestial Hospital - Odyssey Hospital,https://altushospitals.org/altus-houston-hospital/,,,,Houston,TX,29.7114513,-95.5561649,OpenStreetMap (Overpass)
Encompass Health Rehabilitation Hospital Of San Antonio,https://encompasshealth.com/locations/sanantoniorehab,,,,,,29.5274279,-98.5841111,OpenStreetMap (Overpass)
Baylor Scott And White Emergency Hospital Murphy,https://www.bsweh.org/locations/murphy/,,+1 214 294 6150,,Murphy,TX,33.0122339,-96.6243528,OpenStreetMap (Overpass)
Atrium Medical Center,http://www.atriummedicalcenter.com,,+1 281 207 8200,,Stafford,TX,29.6462764,-95.5881322,OpenStreetMap (Overpass)
Baylor Scott And White Continuing Care Hospital,https://www.bswhealth.com/locations/continuing-care-hospital,,,,Temple,TX,31.1182872,-97.3992525,OpenStreetMap (Overpass)
Clinica Hispana Rubymed - Katy,https://www.clinicahispanarubymed.com/?utm_campaign=gmb&utm_medium=referral&utm_source=gmb_katy,,+1-346-517-1202,"Clinica Hispana Rubymed es una red de clínicas familiares localizada en Texas. Estamos especializados en medicina familiar, lo cual incluye todos los miembros de la familia mayores de 5 años.",Katy,TX,29.7904849,-95.8116827,OpenStreetMap (Overpass)
Texas Health Adult Care,https://www.care.texashealth.org/Providers/THPG/Texas-Health-Adult-Care/Internal-Medicine/rubia-sadiq-md,,+1-817-249-7323,Texas Health,,,32.6790736,-97.4678499,OpenStreetMap (Overpass)
Walzem VA Clinic,https://www.va.gov/south-texas-health-care/locations/walzem-va-clinic/,,,Veterans Health Administration,San Antonio,TX,29.4981085,-98.3510368,OpenStreetMap (Overpass)
Bricolage Behavioral Health,https://bricolagebehavioral.com/,information@bricolagebehavioral.com,+1 469-968-5700,,Flower Mound,TX,33.0289771,-97.0695359,OpenStreetMap (Overpass)
The Emergency Center at Conroe,https://www.theemergencycenter.com/conroe-er/,info@theemergencycenter.com,+1-936-236-4911,"The Emergency Center at Conroe is a fully equipped, freestanding emergency room offering 24/7 care with no wait times.",Conroe,TX,30.3698898,-95.4865862,OpenStreetMap (Overpass)
Physicians Premier,https://mdpremier.com/everhart-emergency-room,,+1 361 991 0911,,Corpus Christi,TX,27.7254991,-97.3791201,OpenStreetMap (Overpass)
Kindred Hospital Tarrant County,https://kindredhospitals.com/,,+1 817-548-3400,,,,32.7506923,-97.114063,OpenStreetMap (Overpass)
Action Behavior Centers - ABA Therapy for Autism,https://www.actionbehavior.com/location/texas/forney-east-us-hwy-80,,+1-469-915-4455,,Forney,TX,32.7443556,-96.4504787,OpenStreetMap (Overpass)
Action Behavior Centers - ABA Therapy for Autism,https://www.actionbehavior.com/location/texas/roanoke-us-377,,+1-214-466-6645,,Roanoke,TX,33.0048589,-97.2265574,OpenStreetMap (Overpass)
Action Behavior Centers - ABA Therapy for Autism,https://www.actionbehavior.com/location/texas/conroe-anderson-crossing,,+1-281-401-8599,,Conroe,TX,30.3456014,-95.4838866,OpenStreetMap (Overpass)
Action Behavior Centers - ABA Therapy for Autism,https://www.actionbehavior.com/location/texas/edinburg-west-owassa,,+1-956-467-0470,,Edinburg,TX,26.2483334,-98.1775772,OpenStreetMap (Overpass)
Action Behavior Centers - ABA Therapy for Autism,https://www.actionbehavior.com/location/texas/prosper-north-preston,,+1-214-628-0686,,Prosper,TX,33.2424456,-96.7858893,OpenStreetMap (Overpass)
Action Behavior Centers - ABA Therapy for Autism,https://www.actionbehavior.com/location/texas/alamo-ranch-dugas,,+1-726-222-9466,,San Antonio,TX,29.4373365,-98.6780845,OpenStreetMap (Overpass)
Action Behavior Centers - ABA Therapy for Autism,https://www.actionbehavior.com/location/texas/kirby-sunrise,,+1-210-802-4099,,San Antonio,TX,29.4737342,-98.3635375,OpenStreetMap (Overpass)
Action Behavior Centers - ABA Therapy for Autism,https://www.actionbehavior.com/location/texas/east-new-braunfels,,+1-210-964-6448,,New Braunfels,TX,29.6980043,-98.091551,OpenStreetMap (Overpass)
Action Behavior Centers - ABA Therapy for Autism,https://www.actionbehavior.com/location/texas/harlingen-victor-park,,+1-830-205-5822,,Harlingen,TX,26.1802572,-97.7139185,OpenStreetMap (Overpass)
Orthodontic Nations,https://www.orthodonticnations.com/,woodlandssmile@orthodonticnations.com,+1-936-242-0788,,The Woodlands,TX,30.205199,-95.4624837,OpenStreetMap (Overpass)
UMC Health and Wellness Hospital,http://umchealthsystem.com,,+1-806-775-8200,,,,33.4934849,-101.9206455,OpenStreetMap (Overpass)
Children's Medical Center of Dallas,https://www.childrens.com/location-landing/locations-and-directions/childrens-health-dallas,,+1 844 424 4537,Children's Health,Dallas,,32.8094769,-96.8375444,OpenStreetMap (Overpass)
San Marcos Treatment Center,https://sanmarcostc.com/,,+1 512-396-8500,,San Marcos,TX,29.899724,-97.929165,OpenStreetMap (Overpass)
Ben Taub General Hospital,https://www.harrishealth.org/locations-hh/Pages/ben-taub.aspx,,+1 713 873 2000,Harris Health,Houston,TX,29.7106067,-95.393517,OpenStreetMap (Overpass)
Kerrville VA Medical Center,https://www.southtexas.va.gov/locations/kerrville_va_hospital.asp,,+1 866 487 1653,Veterans Health Administration,Kerrville,TX,30.0163289,-99.1135108,OpenStreetMap (Overpass)
Memorial Hermann Sugar Land Hospital,https://www.memorialhermann.org/locations/sugar-land/,,+1 281 725 5000,Memorial Hermann,Sugar Land,,29.5652211,-95.6905693,OpenStreetMap (Overpass)
Children's Memorial Hermann Hospital,http://childrens.memorialhermann.org/,,+1 713 704 5437,,Houston,TX,29.7138384,-95.3955029,OpenStreetMap (Overpass)
University of Texas MD Anderson Cancer Center,https://www.mdanderson.org/about-md-anderson/our-locations/texas-medical-center.html,,,,Houston,TX,29.7076733,-95.3974081,OpenStreetMap (Overpass)
Houston Methodist San Jacinto Hospital,https://www.houstonmethodist.org/locations/san-jacinto-baytown/,,+1 281 420 8600,Houston Methodist,Baytown,,29.7681402,-94.9796497,OpenStreetMap (Overpass)
Surgery Specialty Hospitals of America,http://ssha.us.com/,,+1 713 378 3000,Dynacq Healthcare,Pasadena,,29.6595189,-95.1776723,OpenStreetMap (Overpass)
Houston Methodist Saint John Hospital,https://www.houstonmethodist.org/locations/st-john/,,+1 281 523 2000,Houston Methodist,Nassau Bay,TX,29.5501411,-95.0869865,OpenStreetMap (Overpass)
Saint David's North Austin Medical Center,https://stdavids.com/location/st-davids-north-austin-medical-center,,+1 512 901 1000,HCA,Austin,TX,30.4117421,-97.7067338,OpenStreetMap (Overpass)
The Children's Hospital of San Antonio,https://www.christushealth.org/santa-rosa/childrens-hospital-of-san-antonio,,+1-210-704-2011,CHRISTUS Health,San Antonio,TX,29.4280301,-98.4991945,OpenStreetMap (Overpass)
Methodist Hospital,https://sahealth.com/locations/methodisthospital/,,+1 210 575 4000,HCA,San Antonio,TX,29.5082642,-98.5719406,OpenStreetMap (Overpass)
Saint Luke's Baptist Hospital,https://www.baptisthealthsystem.com/our-locations/st-luke-s-baptist-hospital,,+1 210 297 5000,TH Medical,San Antonio,,29.5125147,-98.5751758,OpenStreetMap (Overpass)
Methodist Specialty and Transplant Hospital,https://sahealth.com/locations/methodistspecialty/,,+1 210 575 8110,HCA,San Antonio,,29.5141524,-98.5764091,OpenStreetMap (Overpass)
CHRISTUS Santa Rosa Hospital - Medical Center,https://www.christushealth.org/santa-rosa/medical-center,,+1 210 705 6300,CHRISTUS Health,San Antonio,,29.5122571,-98.5891333,OpenStreetMap (Overpass)
Audie L. Murphy Memorial Veterans' Hospital,https://www.southtexas.va.gov/,,+1 210 617 5300,Veterans Health Administration,San Antonio,,29.5058699,-98.5809116,OpenStreetMap (Overpass)
San Antonio Warm Springs Rehabilitation Hospital,http://www.warmsprings.org/our-facilities/outpatient-rehabilitation/warm-springs-rehabilitation-hospital-san-antonio/,,+1 210 616 0100,Post Acute Medical,San Antonio,,29.5139761,-98.5869503,OpenStreetMap (Overpass)
Clarity Child Guidance Center,https://www.claritycgc.org/,,+1 210 616 0300,,San Antonio,TX,29.5194229,-98.5763486,OpenStreetMap (Overpass)
Mays Cancer Center,https://www.uthscsa.edu/patient-care/cancer-center,,+1 210 450 1000,UT Health San Antonio,San Antonio,,29.5129118,-98.5800053,OpenStreetMap (Overpass)
University Health System - Robert B. Green Campus,https://www.universityhealthsystem.com/locations/san-antonio/robert-b-green-campus-903-w-martin-san-antonio-78207,,+1 210 358 3400,University Health System,San Antonio,,29.4310537,-98.5025316,OpenStreetMap (Overpass)
Nix Medical Center,https://www.nixhealth.com/Locations/Nix-Medical-Center.aspx,,+1 210 271 1800,Nix Health Care System,San Antonio,,29.4255843,-98.4894689,OpenStreetMap (Overpass)
CHRISTUS Santa Rosa - Westover Hills,https://www.christushealth.org/santa-rosa/westover-hills,,+1 210 703 8000,CHRISTUS Health,San Antonio,TX,29.4666693,-98.6965397,OpenStreetMap (Overpass)
Texas Health Harris Methodist Hospital Stephenville,https://www.texashealth.org/stephenville/,,+1-254-965-1500,Texas Health,Stephenville,TX,32.2231405,-98.2045828,OpenStreetMap (Overpass)
CHI Saint Luke's Health–The Woodlands Hospital,https://www.chistlukeshealth.org/thewoodlandshospital,,+1 936 266 2000,CHI Saint Luke's Health,The Woodlands,,30.2045856,-95.4585414,OpenStreetMap (Overpass)
Memorial Hermann The Woodlands Medical Center,https://www.memorialhermann.org/locations/the-woodlands/,,+1 713 897 2300,Memorial Hermann,The Woodlands,,30.1747501,-95.4540899,OpenStreetMap (Overpass)
Mission Trail Baptist Hospital,https://www.baptisthealthsystem.com/locations/detail/mission-trail-baptist-hospital?pagestyle=card,,+1 210 297 3000,TH Medical,San Antonio,,29.3443105,-98.4383146,OpenStreetMap (Overpass)
Medical City Dallas,https://medicalcityhospital.com/,,+1 972 566 7000,HCA,Dallas,TX,32.9114905,-96.7734557,OpenStreetMap (Overpass)
The Woman's Hospital of Texas,https://womanshospital.com/,,+1 713 790 1234,HCA,Houston,TX,29.6932971,-95.4026925,OpenStreetMap (Overpass)
Metropolitan Methodist Hospital,https://sahealth.com/locations/metropolitanmethodist/,,+1 210 757 2200,HCA,San Antonio,,29.4410851,-98.4912366,OpenStreetMap (Overpass)
Baptist Medical Center,https://www.baptisthealthsystem.com/,,+1 210 297 7000,Tenet Healthcare,San Antonio,,29.4336602,-98.4925927,OpenStreetMap (Overpass)
Lifecare Hospitals of Fort Worth,https://www.lifecarehealthpartners.com/region/fortworth,,+1-817-370-6078,LifeCare Health Partners,Fort Worth,,32.6788191,-97.4209301,OpenStreetMap (Overpass)
Harris Methodist Southwest Hospital,https://www.texashealth.org/southwestfw/,,+1-817-433-5000,Texas Health,Fort Worth,,32.6577483,-97.4207105,OpenStreetMap (Overpass)
Encompass Health Rehabilitation Hosptial of City View,https://encompasshealth.com/cityviewrehab,,+1-817-370-4700,Encompass Health,Fort Worth,TX,32.6620086,-97.4128034,OpenStreetMap (Overpass)
Seton Southwest Hospital,https://www.seton.net/locations/southwest/,,+1 512 324 9000,Seton Healthcare Family,Austin,TX,30.2261768,-97.8921869,OpenStreetMap (Overpass)
Midland Memorial Hospital,https://www.midland-memorial.com/,,+1 432 221 1111,,Midland,,31.9971605,-102.0996056,OpenStreetMap (Overpass)
Medical Center Hospital,https://mchodessa.com/,,+1 432 640 6000,Medical Center Health System,Odessa,,31.8450427,-102.3736715,OpenStreetMap (Overpass)
Odessa Regional Medical Center,https://odessaregionalmedicalcenter.org/,,+1 432 582 8000,Steward Health Care,Odessa,,31.85186,-102.3644968,OpenStreetMap (Overpass)
Austin State Hospital,https://www.hhs.texas.gov/services/mental-health-substance-use/state-hospitals/austin-state-hospital,,+1 512 452 0381,,Austin,,30.3082233,-97.7368364,OpenStreetMap (Overpass)
Austin State Supported Living Center,https://www.hhs.texas.gov/services/disability/intellectual-or-developmental-disabilities/state-supported-living-centers-sslcs/learn-about-our-state-supported-living-centers,,+1 512 454 4731,Texas Department of Aging and Disability Services,Austin,TX,30.3057947,-97.7615081,OpenStreetMap (Overpass)
Guadalupe Regional Medical Center,https://www.grmedcenter.com/,,+1 830 379 2411,,Seguin,TX,29.5679951,-97.9455593,OpenStreetMap (Overpass)
Saint David's South Austin Medical Center,https://stdavids.com/location/st-davids-south-austin-medical-center,,+1 512 447 2211,HCA,Austin,,30.2257795,-97.7750175,OpenStreetMap (Overpass)
Memorial Hermann Memorial City Medical Center,https://www.memorialhermann.org/locations/memorial-city/,,+1 713 242 3000,Memorial Hermann,Houston,TX,29.7814756,-95.5466859,OpenStreetMap (Overpass)
Ascension Dell Children's Medical Center of Central Texas,https://www.dellchildrens.net/,,+1 512 324 0000,Ascension Healthcare Family,Austin,,30.3035655,-97.7064926,OpenStreetMap (Overpass)
Kindred Hospital Houston Medical Center,https://www.kindredhealthcare.com/locations/transitional-care-hospitals/kindred-hospital-houston-medical-center,,+1 713 790 0500,Kindred Healthcare,Houston,TX,29.7129629,-95.3990926,OpenStreetMap (Overpass)
Memorial Hermann-Texas Medical Center,https://www.memorialhermann.org/locations/texas-medical-center/,,+1 713 704 4000,,Houston,TX,29.7133258,-95.3956037,OpenStreetMap (Overpass)
Baylor Medical Center at Uptown,https://www.bayloruptown.com/,,+1 214 443 3000,,Dallas,TX,32.8043273,-96.7950223,OpenStreetMap (Overpass)
Methodist Stone Oak Hospital,https://sahealth.com/locations/methodiststoneoak/,,+1 210 638 2000,HCA,San Antonio,TX,29.6161801,-98.4750631,OpenStreetMap (Overpass)
US Pain & Spine Hospital,http://www.uspshospital.com/,,+1 713 528 6800,US Pain & Spine,Houston,TX,29.7241882,-95.3840172,OpenStreetMap (Overpass)
CHRISTUS Santa Rosa Hospital - Alamo Heights,https://www.christushealth.org/santa-rosa/alamo-heights,,+1 210 294 8000,CHRISTUS Health,San Antonio,,29.5059501,-98.4767339,OpenStreetMap (Overpass)
Wilbarger General Hospital,https://www.wghospital.com/,,+1 940 552 9351,,Vernon,TX,34.1589349,-99.3146434,OpenStreetMap (Overpass)
Graham Regional Medical Center,https://grahamrmc.com/,,+1 940 549 3400,,Graham,TX,33.0894472,-98.5836321,OpenStreetMap (Overpass)
Seymour Hospital,https://seymourhospital.com/,,+1 940 889 5572,,Seymour,TX,33.5899393,-99.248725,OpenStreetMap (Overpass)
Faith Community Hospital,https://www.fchtexas.com/,,+1 940 567 6633,,Jacksboro,,33.2309251,-98.1667256,OpenStreetMap (Overpass)
Baylor Scott & White Medical Center – College Station,https://www.bswhealth.com/locations/college-station,,+1 979 207 0100,Baylor Scott & White Health,College Station,,30.5827841,-96.2789869,OpenStreetMap (Overpass)
Corpus Christi Medical Center - Bay Area,https://ccmedicalcenter.com/location/bay-area,,+1 361 761 1000,HCA,Corpus Christi,,27.6927583,-97.3447632,OpenStreetMap (Overpass)
Bayview Behavioral Hospital,https://bayviewbehavioralhospital.com/,,+1 361 986 8200,HCA,Corpus Christi,,27.6801109,-97.3603934,OpenStreetMap (Overpass)
CHRISTUS Spohn Hospital Corpus Christi - South,https://www.christushealth.org/spohn/south,,+1 361 881 3000,CHRISTUS Health,Corpus Christi,,27.6845973,-97.3774873,OpenStreetMap (Overpass)
Corpus Christi Medical Center - Doctors Regional,https://ccmedicalcenter.com/location/doctors-regional,,+1 361 761 1000,,Corpus Christi,,27.753156,-97.3887625,OpenStreetMap (Overpass)
Memorial Hermann Greater Heights Hospital,https://www.memorialhermann.org/locations/greater-heights/,,+1 713 867 2000,Memorial Hermann,,,29.8104963,-95.4313193,OpenStreetMap (Overpass)
Ascension Dell Seton Medical Center at The University of Texas,https://www.seton.net/locations/dell-seton/,,+1-512-324-7990,Ascension,Austin,,30.2768959,-97.7342948,OpenStreetMap (Overpass)
Seton Medical Center Hays,https://www.seton.net/locations/seton-medical-center-hays/,,+1 512 504 5000,Seton Healthcare Family,Kyle,TX,30.0089577,-97.8526523,OpenStreetMap (Overpass)
Texas Health Harris Methodist Hospital Fort Worth,https://www.texashealth.org/fortworth/,,+1 817 250 2000,Texas Health,Fort Worth,TX,32.7360782,-97.3388702,OpenStreetMap (Overpass)
Methodist Boerne Emergency Center,https://sahealth.com/locations/methodistboerne/,,+1 830 331 3000,HCA,Boerne,TX,29.7719685,-98.7306337,OpenStreetMap (Overpass)
Baylor Scott & White Medical Center – Irving,https://www.bswhealth.com/locations/irving/about,,+1 972 579 8100,Baylor Scott & White Health,Irving,,32.8349982,-96.9610269,OpenStreetMap (Overpass)
Trinity Mother Francis Hospital - Jacksonville,https://www.tmfhc.org/jacksonville,,+1 903 541 4500,,Jacksonville,TX,31.9384972,-95.2478458,OpenStreetMap (Overpass)
Providence Hospital of North Houston,https://providence.hospital/,,+1 281 453 7110,,Houston,,30.0143931,-95.4405914,OpenStreetMap (Overpass)
Uvalde Memorial Hospital,https://www.umhtx.org/,,+1 830 278 6251,,Uvalde,TX,29.2140852,-99.7683058,OpenStreetMap (Overpass)
Texas NeuroRehab Center,https://texasneurorehab.com/,,+1 512 444 4835,,Austin,,30.1901153,-97.8060748,OpenStreetMap (Overpass)
Baylor Scott & White Medical Center – Taylor,https://www.bswhealth.com/locations/taylor,,+1 512 352 7611,Baylor Scott & White Health,Taylor,,30.5912354,-97.4149608,OpenStreetMap (Overpass)
Carrollton Regional Medical Center,https://www.crmc.health/,,+1 972 492 1010,"Carrollton Regional Medical Center, a leading multi-specialty hospital managed by Sana Healthcare, is a 216-bed Acute Care Hospital dedicated to serving the healthcare needs of Carrollton, Farmers Branch, Lewisville, The Colony, & neighboring communities.",Carrollton,,33.028195,-96.8855268,OpenStreetMap (Overpass)
Rolling Plains Memorial Hospital,https://www.rpmh.net/,,+1-325 235 1701,,Sweetwater,TX,32.4530774,-100.3974156,OpenStreetMap (Overpass)
Baylor Scott & White Hillcrest Medical Center,http://www.sw.org/location/waco-hillcrest-medical-center,,+1-254-202-2000,,Waco,TX,31.488673,-97.1568201,OpenStreetMap (Overpass)
Baylor Scott & White All Saints Medical Center – Fort Worth,https://www.bswhealth.com/locations/fort-worth,,+1 817 926 2544,Baylor Scott & White Health,Fort Worth,,32.7297941,-97.3461258,OpenStreetMap (Overpass)
Baptist Emergency Hospital,https://www.baptistemergencyhospital.com/,,+1-210-572-8885,,San Antonio,TX,29.5708989,-98.6490817,OpenStreetMap (Overpass)
Methodist Texsan Heart Hospital,https://sahealth.com/locations/methodisttexsan/,,+1 210 736 6700,HCA,San Antonio,TX,29.4903575,-98.5474774,OpenStreetMap (Overpass)
South Texas Spine and Surgical Hospital,https://southtexassurgical.com/,,+1 210 404 0800,,San Antonio,,29.6137928,-98.4775316,OpenStreetMap (Overpass)
Kindred Hospital - San Antonio,https://www.kindredhealthcare.com/locations/transitional-care-hospitals/kindred-hospital-san-antonio,,+1 210 616 0616,Kindred Healthcare,San Antonio,TX,29.5219663,-98.5563904,OpenStreetMap (Overpass)
Texas Health Allen,https://www.texashealth.org/allen/,,+1 972 747 1000,Texas Health,Allen,,33.1163059,-96.6735894,OpenStreetMap (Overpass)
Riverside General Hospital,http://www.riversidegeneralhospital.org/,,+1 713 526 2441,,Houston,TX,29.7306741,-95.3612931,OpenStreetMap (Overpass)
Saint Joseph Medical Center,https://sjmctx.org/,,+1 713 757 1000,Steward Health Care,Houston,TX,29.7478958,-95.3659559,OpenStreetMap (Overpass)
Kingwood Pines Hospital,https://www.kingwoodpines.com/,,+1 281 404 1001,,Kingwood,,30.0445448,-95.2296551,OpenStreetMap (Overpass)
Baylor Scott And White Medical Center - Buda,https://www.bswhealth.com/locations/buda-hospital,,+1 737 999 6200,,Buda,TX,30.076682,-97.8200566,OpenStreetMap (Overpass)
Laurel Ridge Treatment Center,https://laurelridgetc.com/,,+1 210 491 9400,,San Antonio,TX,29.6033641,-98.4383912,OpenStreetMap (Overpass)
CHRISTUS Good Shepherd Medical Center,https://www.christushealth.org/good-shepherd/longview,,+1 903 315 1800,CHRISTUS Health,Longview,TX,32.5015563,-94.7311173,OpenStreetMap (Overpass)
Longview Regional Medical Center,https://www.longviewregional.com/,,+1 903 758 1818,,Longview,TX,32.5338507,-94.7307561,OpenStreetMap (Overpass)
Parmer Medical Center,http://www.parmermedicalcenter.com/,,+1 806 250 2754,,Friona,TX,34.6439987,-102.7215623,OpenStreetMap (Overpass)
Encompass Health Rehabilitation Hospital of Midland Odessa,http://www.healthsouthmidland.com/,,+1 432 520 1600,Encompass Health,Midland,TX,31.9996799,-102.1562111,OpenStreetMap (Overpass)
Permian Regional Medical Center,http://permianregional.com/,,+1 432 523 2200,,Andrews,TX,32.3375628,-102.5463223,OpenStreetMap (Overpass)
Memorial Hospital,https://seminolehospitaldistrict.com/,,+1 432 758 5811,Seminole Hospital District,Seminole,,32.7218712,-102.6548099,OpenStreetMap (Overpass)
CHI Saint Luke's Health-Memorial Lufkin,http://www.memorialhealth.us/centers/lufkin,,+1 936 634 8111,CHI Saint Luke's Health,Lufkin,TX,31.3366624,-94.7415402,OpenStreetMap (Overpass)
The Physicians Centre Hospital,http://thephysicianscentre.com/,,+1 979 731 3100,,Bryan,,30.6502444,-96.2979287,OpenStreetMap (Overpass)
CHI Saint Joseph Health Regional Hospital,https://www.chistjoseph.org/locations/chi-st-joseph-health-burleson-hospital,,+1 979 776 3777,CHI Saint Joseph Health,Bryan,,30.6557198,-96.3468765,OpenStreetMap (Overpass)
St. Joseph Health College Station Hospital,https://stjoseph-locations.stlukeshealth.org/location/chi-st-joseph-health-college-station-hospital,,+1 979 764 5100,,College Station,,30.5808923,-96.289868,OpenStreetMap (Overpass)
Crane Memorial Hospital,https://www.cranememorial.org/,,+1 432 558 3555,,Crane,,31.3897655,-102.3493994,OpenStreetMap (Overpass)
Ward Memorial Hospital,https://www.wardmemorial.com/,,+1 432 943 2511,,Monahans,,31.593768,-102.8834868,OpenStreetMap (Overpass)
Hunt Regional Medical Center,https://www.huntregional.org/,,+1 903 408 5000,Hunt Regional Healthcare,Greenville,TX,33.1223932,-96.1247201,OpenStreetMap (Overpass)
El Paso VA Health Care Clinic,https://www.elpaso.va.gov/,,+1 915 564 6100,Veterans Health Administration,El Paso,TX,31.8206786,-106.4622358,OpenStreetMap (Overpass)
Scenic Mountatin Medical Center,http://www.smmccares.com/,,+1 432 263 1211,,Big Spring,TX,32.2373239,-101.491574,OpenStreetMap (Overpass)
University Hospital,https://www.universityhealthsystem.com/locations/san-antonio/university-hospital-4502-medical-dr-san-antonio-78229,,+1 210 358 4000,University Health System,San Antonio,TX,29.5078147,-98.5788999,OpenStreetMap (Overpass)
Texas Health Presbyterian Hospital Plano,https://www.texashealth.org/plano/,,+1 972 981 8000,Texas Health Resources,Plano,,33.0425753,-96.8362655,OpenStreetMap (Overpass)
Texas Center for Infectious Disease,https://www.dshs.texas.gov/tcid/,,+1 210 534 8857,Texas Department of State Health Services,San Antonio,TX,29.3547584,-98.4584438,OpenStreetMap (Overpass)
San Antonio State Hospital,https://www.dshs.state.tx.us/mhhospitals/,,+1-210-532-8811,Texas Health and Human Services,San Antonio,TX,29.3603164,-98.4587064,OpenStreetMap (Overpass)
Kerrville State Hospital,https://www.hhs.texas.gov/services/mental-health-substance-use/state-hospitals/kerrville-state-hospital,,+1 830 896 2211,Texas Department of State Health Services,Kerrville,TX,30.0456824,-99.1578253,OpenStreetMap (Overpass)
Brenham State Supported Living Center,https://www.hhs.texas.gov/services/disability/intellectual-or-developmental-disabilities-idd-long-term-care/state-supported-living-centers-sslcs/brenham-state-supported-living-center,,+1 979 836 4511,Texas Department of Aging and Disability Services,Brenham,TX,30.1256084,-96.385578,OpenStreetMap (Overpass)
Corpus Christi State Supported Living Center,https://hhs.texas.gov/services/disability/intellectual-or-developmental-disabilities-idd-long-term-care/state-supported-living-centers-sslcs,,+1 361 888 5301,Texas Department of Aging and Disability Services,Corpus Christi,TX,27.7701757,-97.4356411,OpenStreetMap (Overpass)
Denton State Supported Living Center,https://www.dads.state.tx.us/services/sslc/,,+1 940 891 0342,Texas Department of Aging and Disability Services,Denton,TX,33.1662862,-97.096285,OpenStreetMap (Overpass)
Lubbock State Supported Living Center,https://www.dads.state.tx.us/services/SSLC,,+1 806 763 7041,Texas Department of Aging and Disability Services,Lubbock,TX,33.6326199,-101.8752665,OpenStreetMap (Overpass)
San Angelo State Supported Living Center,https://www.dads.state.tx.us/services/SSLC/,,+1 325 465 4391,Texas Department of Aging and Disability Services,Carlsbad,TX,31.6111892,-100.6498253,OpenStreetMap (Overpass)
Abilene State Supported Living Center,https://www.absslc.org/,,+1 325 692 4053,Texas Department of Aging and Disability Services,Abilene,TX,32.4183808,-99.7167223,OpenStreetMap (Overpass)
Magnolia Behavioral Hospital,https://magnoliabehavioralhospital.com/,,+1 866 977 3456,"Oglethorpe, Inc.",Longview,TX,32.5645072,-94.7641872,OpenStreetMap (Overpass)
Shriners Hospitals for Children — Houston,https://www.shrinershospitalsforchildren.org/houston,,+1 713 797 1616,Shriners Hospitals for Children,Houston,TX,29.7043796,-95.4056703,OpenStreetMap (Overpass)
Quail Creek Surgical Hospital,https://physurg.com/,,+1 806 354 6100,Physicians Surgical Hospitals,Amarillo,TX,35.2103232,-101.9127242,OpenStreetMap (Overpass)
Plum Creek Speciality Hospital,http://specialtyhospitalplumcreek.com/,,+1 806 351 1000,Concord Healthcare Group,Amarillo,TX,35.2189012,-101.9016173,OpenStreetMap (Overpass)
Dallas Medical Center,https://www.dallasmedcenter.com/,,+1 972 888 7000,,Dallas,,32.9149892,-96.8702649,OpenStreetMap (Overpass)
CHRISTUS Good Shepherd Medical Center - Marshall,https://www.christushealth.org/good-shepherd/marshall,,+1 903 927 6000,CHRISTUS Health,Marshall,TX,32.5375636,-94.369472,OpenStreetMap (Overpass)
Baylor Scott & White Medical Center – Centennial,https://www.bswhealth.com/locations/centennial,,+1 972 963 3333,Baylor Scott & White Health,Frisco,TX,33.1134998,-96.7704825,OpenStreetMap (Overpass)
Dallas VA Medical Center,https://www.northtexas.va.gov/,,+1 800 849 3597,United States Department of Veterans Affairs,Dallas,,32.6947267,-96.7891774,OpenStreetMap (Overpass)
Methodist Charlton Medical Center,https://www.methodisthealthsystem.org/methodist-charlton-medical-center/,,+1 214 947 7777,Methodist Health System,Dallas,TX,32.6454928,-96.8763718,OpenStreetMap (Overpass)
Saint David's Surgical Hospital,https://stdavids.com/location/st-davids-surgical-hospital,,+1-512-248-7000,HCA,Round Rock,TX,30.4769014,-97.6905237,OpenStreetMap (Overpass)
Clinica Hispana Rubymed - Lubbock,https://www.clinicahispanarubymed.com/locations/clinica-hispana-lubbock-tx,lubbock@clinicahispanarubymed.com,+1-806-214-1132,,Lubbock,TX,33.5490795,-101.8674477,OpenStreetMap (Overpass)
Baylor Scott & White Institute for Rehabilitation,https://www.bswrehab.com/,,+1 214 820 9300,Baylor Scott & White Health,Dallas,,32.7917069,-96.7805086,OpenStreetMap (Overpass)
City Hospital at White Rock,https://cityhospital.co/,,+1 214 324 6100,,Dallas,TX,32.8345038,-96.7055247,OpenStreetMap (Overpass)
Kindred Hospital Dallas Central,https://www.kindredhospitals.com/locations/ltac/kindred-hospital-dallas-central,,+1 469 232 6500,,Dallas,TX,32.8870137,-96.7674727,OpenStreetMap (Overpass)
Del Sol Medical Center,https://laspalmasdelsolhealthcare.com/location/del-sol-medical-center,,+1 915 595 9000,Las Palmas Del Sol Healthcare,El Paso,TX,31.7568194,-106.3498388,OpenStreetMap (Overpass)
Plains Memorial Hospital,https://www.plainsmemorial.com/,,+1 806 647 2191,Castro County Healthcare,Dimmitt,TX,34.5562032,-102.3158819,OpenStreetMap (Overpass)
Paris Regional Medical Center – South Campus,http://parisregionalmedical.com/,,,Paris Regional Medical Center,Paris,TX,33.6595639,-95.5472063,OpenStreetMap (Overpass)
CHRISTUS Southeast Texas - Saint Mary,https://www.christushealth.org/southeast-texas/st-mary/,,+1 409 985 7431,CHRISTUS Health,Port Arthur,,29.9089698,-93.9245143,OpenStreetMap (Overpass)
Tomball Regional Medical Center,https://tomballregionalmedicalcenter.com/,,+1-281-401-7500,HCA,Tomball,TX,30.0873959,-95.6230865,OpenStreetMap (Overpass)
UTMB Health Angleton Danbury Campus,https://www.utmb.edu/utmbhealth/locations/hospitals-campuses/angleton-danbury-campus/hospital,,+1 979 849 7721,UTMB Health,Angleton,,29.1840744,-95.4046119,OpenStreetMap (Overpass)
Hendrick Medical Center,http://www.ehendrick.org/,,+1 325 670 2000,,Abilene,TX,32.4720559,-99.7330238,OpenStreetMap (Overpass)
CHRISTUS Trinity Mother Frances HealthPark - Lindale,https://www.christushealth.org/trinity/clinic/locations-directions/lindale,,+1 903 266 4000,CHRISTUS Trinity Mother Frances Health System,Lindale,TX,32.4737832,-95.3919343,OpenStreetMap (Overpass)
Northeast Baptist Hospital,https://www.baptisthealthsystem.com/our-locations/northeast-baptist-hospital,,+1 210 297 2000,,San Antonio,,29.5197845,-98.4288083,OpenStreetMap (Overpass)
Medical City McKinney,https://medicalcitymckinney.com/,,+1 972 547 8000,HCA,McKinney,TX,33.1599838,-96.6381471,OpenStreetMap (Overpass)
Wadley Regional Medical Center,https://wadleyhealth.org/,,+1 903 798 8000,Steward Health Care,Texarkana,TX,33.4286214,-94.0479591,OpenStreetMap (Overpass)
CHI St. Luke’s Health Memorial San Augustine,https://www.stlukeshealth.org/locations/memorial-san-augustine-hospital,,+1-936-275-3446,,San Augustine,TX,31.5323711,-94.1031294,OpenStreetMap (Overpass)
Texas Health Harris Methodist Hospital Fort Worth,https://www.texashealth.org/locations/texas-health-fort-worth,,+1 8172503333,Texas Health Harris Methodist Hospital Fort Worth,Fort Worth,TX,32.7348561,-97.3389672,OpenStreetMap (Overpass)
Gonzales Healthcare Systems,https://www.gonzaleshealthcare.com/,,+1 830 672 7581,Gonzales Healthcare Systems,Gonzales,,29.5175009,-97.4289492,OpenStreetMap (Overpass)
Baylor Scott & White Medical Center – Waxahachie,http://www.baylorhealth.com/PhysiciansLocations/Waxahachie/Pages/Default.aspx,,+1 469 843 4000,Baylor Scott & White Health,Waxahachie,TX,32.4278343,-96.8576907,OpenStreetMap (Overpass)
Corpus Christi Medical Center - Northwest Regional,https://ccmedicalcenter.com/location/northwest-regional,,+1 361 761 1000,HCA,Corpus Christi,TX,27.8547852,-97.6358848,OpenStreetMap (Overpass)
Houston Methodist Willowbrook Hospital,https://www.houstonmethodist.org/locations/willowbrook/,,+1 281 737 2500,Houston Methodist,Houston,TX,29.9670945,-95.550465,OpenStreetMap (Overpass)
Saint David's Medical Center,https://stdavids.com/location/st-davids-medical-center,,+1 512 476 7111,HCA,Austin,,30.2894958,-97.7253308,OpenStreetMap (Overpass)
Palacios Community Medical Center,http://www.palacioshospital.net/,,+1 361 972 2511,,Palacios,,28.7168216,-96.2140539,OpenStreetMap (Overpass)
Jackson County Hospital,https://www.jchd.org/,,+1 361 782 7800,,Edna,,28.9688162,-96.6355464,OpenStreetMap (Overpass)
El Campo Memorial Hospital,https://ecmh.org/,,+1 979 543 6251,,Angleton,,29.2190504,-96.290793,OpenStreetMap (Overpass)
UTHealth Harris County Psychiatric Center,https://hcpc.uth.edu/,,+1 713 741 5000,,Houston,TX,29.7120613,-95.3746382,OpenStreetMap (Overpass)
Memorial Hermann Southeast Hospital,https://www.memorialhermann.org/locations/southeast/,,+1 281 929 6100,Memorial Hermann,Houston,,29.5828183,-95.2073307,OpenStreetMap (Overpass)
Refugio County Memorial Hospital,https://refugiohospital.com/,,+1 361 526 2321,,Refugio,,28.3066966,-97.2801015,OpenStreetMap (Overpass)
The T. Boone Pickens Center for Hospice and Palliative Care,https://www.faithpreshospice.org/,,+1-800-724-6386,,Dallas,TX,32.9173838,-96.7739376,OpenStreetMap (Overpass)
UT Health Quitman,https://uthealthquitman.com/,,+1-903-763-6300,,Quitman,TX,32.7969098,-95.4434122,OpenStreetMap (Overpass)
East Texas Medical Center - Athens,https://www.etmc.org/location/etmc-athens/,,,,Athens,TX,32.1706137,-95.8471371,OpenStreetMap (Overpass)
UT Health - Carthage,https://uthealthcarthage.com/,,,,Carthage,TX,32.1663444,-94.3467883,OpenStreetMap (Overpass)
UT Health - Henderson,https://uthealthhenderson.com/,,+1-903-657-7541,,Henderson,TX,32.1608308,-94.7954644,OpenStreetMap (Overpass)
UT Health - Jacksonville,https://uthealthjacksonville.com/,,,UT Health,Jacksonville,TX,31.960139,-95.2705206,OpenStreetMap (Overpass)
UT Health Pittsburg,https://uthealthpittsburg.com/,,+1 903 946 5000,UT Health,Pittsburg,,33.0332012,-94.9593439,OpenStreetMap (Overpass)
UT Health East Texas Behavioral Health Center,https://www.uthealtheasttexas.com/,,,UT Health East Texas,Tyler,TX,32.3115513,-95.2483211,OpenStreetMap (Overpass)
HCA Houston Healthcare Kingwood,https://hcahoustonhealthcare.com/locations/kingwood/,,+1-281-348-8000,HCA Houston Healthcare,Kingwood,TX,30.0501954,-95.2546181,OpenStreetMap (Overpass)
Jennie Sealy Hospital,https://www.utmbhealth.com/locations/hospitals-campuses/galveston-campus/hospitals-services/jennie-sealy-hospital,,+1 409 772 1011,The University of Texas Medical Branch,Galveston,TX,29.3123706,-94.776391,OpenStreetMap (Overpass)
Texas Department of Criminal Justice Hospital,https://www.utmb.edu/tdcj/,,+1 409 772 7623,,Galveston,,29.3124399,-94.7778624,OpenStreetMap (Overpass)
Methodist Mansfield Medical Center,https://www.methodisthealthsystem.org/methodist-mansfield-medical-center/,,+1 682 242 2000,Methodist Health System,Mansfield,TX,32.5684074,-97.0944777,OpenStreetMap (Overpass)
Connally Memorial Medical Center,https://www.connallymmc.org/,,+1-830-393-1300,,Floresville,TX,29.1589079,-98.1747753,OpenStreetMap (Overpass)
The Heart Hospital Baylor Denton,https://denton.thehearthospitalbaylor.com/,,+1 940 220 0600,,Denton,TX,33.1766195,-97.0873218,OpenStreetMap (Overpass)
Mayhill Hospital,https://www.mayhillhospital.com/,,+1 940 239 3000,,Denton,,33.1759195,-97.086855,OpenStreetMap (Overpass)
Atrium Medical Center,https://horizonmedcenter.com/locations/denton/,,+19405658580,,Denton,TX,33.1743292,-97.0869608,OpenStreetMap (Overpass)
Baylor Scott & White Medical Center – Round Rock,https://www.bswhealth.com/locations/round-rock,,+1 512 509 0100,Baylor Scott & White Health,Round Rock,,30.5629004,-97.6850977,OpenStreetMap (Overpass)
CHI Saint Luke's Health - The Vintage Hospital,https://www.chistlukeshealth.org/thevintagehospital,,+1 832 534 5000,CHI Saint Luke's Health,Houston,TX,29.9892964,-95.5684954,OpenStreetMap (Overpass)
Harlingen Medical Center,https://www.harlingenmedicalcenter.com/,,+1 956 365 1000,Prime Healthcare,Harlingen,TX,26.1574696,-97.6752827,OpenStreetMap (Overpass)
Valley Baptist Medical Center,https://www.valleybaptist.net/,,+1 855 720 7448,TH Medical,Harlingen,TX,26.1752587,-97.6702335,OpenStreetMap (Overpass)
Texas Health Presbyterian Hospital Dallas,https://www.texashealth.org/dallas/,,+1 214 345 6789,Texas Health,Dallas,,32.8796934,-96.7614764,OpenStreetMap (Overpass)
Baylor University Medical Center,https://www.bswhealth.com/locations/dallas,,+1 214 820 0111,Baylor Scott & White Health,Dallas,TX,32.7900273,-96.778612,OpenStreetMap (Overpass)
John Peter Smith Hospital,https://www.jpshealthnet.org/,,+1 817 702 3431,JPS Health Network,Fort Worth,,32.7270663,-97.327826,OpenStreetMap (Overpass)
Baylor Scott & White Medical Center – McKinney,https://www.bswhealth.com/locations/mckinney/,,+1 469 764 1000,Baylor Scott & White Health,McKinney,TX,33.220563,-96.6821176,OpenStreetMap (Overpass)
TMC Bonham Hospital,https://tmcbonham.com/,,+1 903 583 8585,,Bonham,,33.5782941,-96.1661772,OpenStreetMap (Overpass)
Sam Rayburn Veterans Administration Hospital,https://www.northtexas.va.gov/locations/Bonham.asp,,+1 800 924 8387,Veterans Health Administration,Bonham,,33.5844603,-96.1646336,OpenStreetMap (Overpass)
Palestine Regional Medical Center,https://www.palestineregional.com/,,+1 903 731 1000,,Palestine,,31.7328281,-95.6271806,OpenStreetMap (Overpass)
Citizens Medical Center,https://citizensmedicalcenter.org/,,+1 361 573 9181,,Victoria,TX,28.8124452,-96.9777738,OpenStreetMap (Overpass)
Baylor Scott & White Emergency Medical Center,https://www.bswemc.org/,,+1 512 684 4000,Baylor Scott & White Health,Cedar Park,TX,30.5233155,-97.81975,OpenStreetMap (Overpass)
Medical City Las Colinas,https://medicalcitylascolinas.com/,,+1 972 969 2000,HCA,Irving,TX,32.9022415,-96.957036,OpenStreetMap (Overpass)
Las Palmas Medical Center,https://laspalmasdelsolhealthcare.com/location/las-palmas-medical-center,,+1-915-521-1200,Las Palmas Del Sol Healthcare,El Paso,TX,31.7699899,-106.4983374,OpenStreetMap (Overpass)
Providence Memorial Hospital,https://www.thehospitalsofprovidence.com/our-locations/memorial-campus,,+1 915 577 6011,The Hospitals of Providence,El Paso,TX,31.7701997,-106.500872,OpenStreetMap (Overpass)
Kindred Hospital El Paso,https://www.kindredhealthcare.com/locations/transitional-care-hospitals/kindred-hospital-el-paso,,+1 915 351 9044,Kindred Healthcare,El Paso,,31.7788642,-106.4772316,OpenStreetMap (Overpass)
Sierra Medical Center,https://www.thehospitalsofprovidence.com/our-locations/sierra-campus,,+1 915 747 4000,The Hospitals of Providence,El Paso,TX,31.7784988,-106.4808159,OpenStreetMap (Overpass)
University Medical Center,https://www.umcelpaso.org/,,+1 915 544 1200,,El Paso,TX,31.7721924,-106.4351416,OpenStreetMap (Overpass)
Highlands Rehabilitation Hospital,http://www.highlandsrehabilitationhospital.com/,,+1 915 298 7222,,El Paso,,31.7325477,-106.3030163,OpenStreetMap (Overpass)
The Hospitals of Providence - East Campus,https://www.thehospitalsofprovidence.com/our-locations/east-campus,,+1 915 832 2000,The Hospitals of Providence,El Paso,,31.7903395,-106.2645802,OpenStreetMap (Overpass)
Reeves County Hospital,http://www.reevescountyhospital.com/,,+1-432-447-3551,Reeves County Hospital District,Pecos,,31.4011603,-103.5138998,OpenStreetMap (Overpass)
Big Bend Regional Medical Center,https://bigbendhealthcare.com/,,+1-432-837-3447,,Alpine,TX,30.3841742,-103.6703303,OpenStreetMap (Overpass)
Val Verde Regional Medical Center,https://www.vvrmc.org/,,+1 830 775 8566,,Del Rio,,29.3749716,-100.8921625,OpenStreetMap (Overpass)
Medina Community Hospital,https://www.medinahospital.net/,,+1 830 426 7700,Medina Healthcare System,Hondo,TX,29.3350208,-99.1344882,OpenStreetMap (Overpass)
Frio Regional Hospital,https://www.frioregionalhospital.com/,,+1 830 334 3617,,Pearsall,TX,28.8963718,-99.1170994,OpenStreetMap (Overpass)
Fort Duncan Regional Medical Center,https://www.fortduncanmedicalcenter.com/,,+1 830 773 5321,Universal Health Services,Eagle Pass,TX,28.7129272,-100.455409,OpenStreetMap (Overpass)
Dimmit Regional Hospital,http://dimmitregionalhospital.com/,,+1 830 876 2424,,Carrizo Springs,,28.5194947,-99.8631598,OpenStreetMap (Overpass)
Laredo Medical Center,https://www.laredomedical.com/,,+1 956 796 5000,,Loredo,,27.5325199,-99.4780361,OpenStreetMap (Overpass)
Doctors Hospital of Laredo,https://www.doctorshosplaredo.com/,,+1 956 523 2000,Universal Health Services,Laredo,TX,27.6066858,-99.4783366,OpenStreetMap (Overpass)
Mission Regional Medical Center,https://www.missionrmc.org/,,+1 956 323 9000,Prime Healthcare Services,Mission,TX,26.1959188,-98.3148748,OpenStreetMap (Overpass)
McAllen Medical Center,https://www.mcallenmedicalcenter.com/,,+1 956 632 4000,Universal Health Services,McAllen,,26.186466,-98.2259582,OpenStreetMap (Overpass)
Rio Grande Regional Hospital,https://riohealth.com/,,+1 956 632 6000,HCA Healthcare Gulf Coast Division,McAllen,,26.186578,-98.2212603,OpenStreetMap (Overpass)
McAllen Heart Hospital,https://www.mcallenhearthospital.com/,,+1 956 994 2000,Universal Health Services,McAllen,,26.1838268,-98.2181329,OpenStreetMap (Overpass)
Edinburg Regional Medical Center,https://www.edinburgregional.com/,,+1 956 388 6000,Universal Health Services,Edinburg,,26.2613205,-98.1818038,OpenStreetMap (Overpass)
Connerstone Regional Hospital,https://cornerstoneregional.com/,,+1 956 618 4444,Universal Health Services,Edinburg,,26.2626877,-98.1983596,OpenStreetMap (Overpass)
Knapp Medical Center,https://www.knappmed.org/,,+1 956 968 8567,Prime Healthcare Services,Weslaco,,26.1533891,-97.9783487,OpenStreetMap (Overpass)
Valley Regional Medical Center,https://valleyregionalmedicalcenter.com/,,+1 956 350 7000,HCA,Brownsville,TX,25.9777724,-97.5145156,OpenStreetMap (Overpass)
CHRISTUS Spohn Hospital - Kleberg,https://www.christushealth.org/spohn/kleberg,,+1 361 595 1661,CHRISTUS Health,Kingsville,TX,27.4901469,-97.8506863,OpenStreetMap (Overpass)
CHRISTUS Spohn Hospital Alice,https://www.christushealth.org/spohn/alice,,+1 361 881 3000,CHRISTUS Health,Alice,,27.7644011,-98.0417695,OpenStreetMap (Overpass)
CHRISTUS Spohn Hospital Corpus Christi - Shoreline,https://www.christushealth.org/spohn/shoreline,,+1 361 881 3000,CHRISTUS Health,Corpus Christi,,27.7774677,-97.3951235,OpenStreetMap (Overpass)
CHRISTUS Spohn Hospital Corpus Christi - Memorial,https://www.christushealth.org/spohn/memorial,,+1 361 902 4000,CHRISTUS Health,Corpus Christi,TX,27.7798986,-97.416021,OpenStreetMap (Overpass)
Driscoll Children's Hospital,https://www.driscollchildrens.org/,,+1 361 694 5000,,Corpus Christi,,27.7489316,-97.3863586,OpenStreetMap (Overpass)
CHRISTUS Spohn Hospital Beeville,https://www.christushealth.org/spohn/beeville,,+1 361 354 2000,CHRISTUS Health,Beeville,,28.407288,-97.7314114,OpenStreetMap (Overpass)
Otto Kaiser Memorial Hospital,https://www.okmh.org/,,+1 830 583 3401,,Kenedy,,28.8500821,-97.8780108,OpenStreetMap (Overpass)
Methodist Hospital South,https://sahealth.com/locations/methodisthospitalsouth/,,+1 830 769 3515,Methodist Healthcare,Jourdanton,,28.9330891,-98.5260038,OpenStreetMap (Overpass)
Coon Memorial Hospital,https://www.dhchd.org/,,+1 806 244 4571,Dallam-Hartley Counties Hospital District,Dalhart,TX,36.0515646,-102.5208306,OpenStreetMap (Overpass)
Ochiltree General Hospital,https://www.ochiltreehospital.com/,,+1 806 435 3606,,Perryton,TX,36.3701354,-100.798717,OpenStreetMap (Overpass)
Hansford County Hospital,https://www.hchd.net/,,+1 806 659 2535,,Spearman,TX,36.1903679,-101.1992727,OpenStreetMap (Overpass)
Hemphill County Hospital,https://hchdst.org/,,+1 806 323 6422,,Canadian,TX,35.9036502,-100.38817,OpenStreetMap (Overpass)
Parkview Hospital,http://wheelertexas.org/businesses/parkview/,,+1 806 826 5581,,Wheeler,,35.4393363,-100.2703104,OpenStreetMap (Overpass)
Shamrock General Hospital,https://sghtexas.com/,,+1 806 256 2114,,Shamrock,,35.1986407,-100.2482083,OpenStreetMap (Overpass)
Collingsworth General Hospital,https://collingsworthgeneral.net/,,+1 806 447 2521,,Wellington,TX,34.8486093,-100.2119851,OpenStreetMap (Overpass)
Pampa Regional Medical Center,https://www.prmctx.com/,,+1-806-665-3721,Prime Healthcare Services,Pampa,TX,35.5728282,-100.9648758,OpenStreetMap (Overpass)
Golden Plains Community Hospital,https://www.goldenplains.org/,,+1 806 467 5700,,Borger,TX,35.6549426,-101.4089825,OpenStreetMap (Overpass)
Northwest Texas Healthcare System,https://www.nwths.com/,,+1 806 354 1000,Northwest Texas Healthcare System,Amarillo,TX,35.2010308,-101.9206152,OpenStreetMap (Overpass)
The Pavillion Hospital,http://www.pavilionnwtexashealthcare.com/,,+1 806 354 1810,Northwest Texas Healthcare System,Amarillo,TX,35.2011064,-101.9184682,OpenStreetMap (Overpass)
Vibra Hospital of Amarillo,https://www.vibrahealthcare.com/amarillo/,,+1 806 429 4127,Vibra Healthcare,Amarillo,TX,35.1942549,-101.9267402,OpenStreetMap (Overpass)
Thomas E. Creek VA Medical Center,https://www.amarillo.va.gov/,,+1 806 355 9703,Veterans Health Administration,Amarillo,TX,35.203697,-101.906586,OpenStreetMap (Overpass)
Baptist Saint Anthony's Health System,https://bsahs.org/,,+1-806-212-2000,,Amarillo,TX,35.1966423,-101.9196209,OpenStreetMap (Overpass)
Vibra Rehabilitation Hospital of Amarillo,https://www.vibrahealthcare.com/amarillo-rehabilitation/,,+1 806 853 5690,Vibra Healthcare,Amarillo,TX,35.2067818,-101.9207292,OpenStreetMap (Overpass)
Hereford Regional Medical Center,https://dschd.org/,,+1 806 364 2141,Deaf Smith County Hospital District,Hereford,TX,34.8389279,-102.4136831,OpenStreetMap (Overpass)
Swisher Memorial Hospital,https://www.swisherhospital.com/,,+1 806 995 3581,,Tulia,TX,34.5361899,-101.7558928,OpenStreetMap (Overpass)
Muleshoe Area Medical Center,https://www.muleshoehospital.com/,,+1 806 272 4524,,Muleshoe,TX,34.2213001,-102.7289811,OpenStreetMap (Overpass)
Covenant Hospital Levelland,https://www.covenanthealth.org/contact-us/locations/covenant-health-levelland/,,+1 806 894 4963,Covenant Health,Levelland,TX,33.5731817,-102.3689129,OpenStreetMap (Overpass)
Lamb Healthcare Center,https://www.lambhc.org/,,+1 806 385 6411,,Littlefield,,33.9119681,-102.3443292,OpenStreetMap (Overpass)
Covenant Health Plainview,https://www.covenanthealth.org/contact-us/locations/covenant-health-plainview/,,+1 806 296 5531,Covenant Health,Plainview,TX,34.2066505,-101.7324073,OpenStreetMap (Overpass)
W.J. Mangold Memorial Hospital,https://www.mangoldmemorial.org/,,+1 800 687 6079,Lockney General Hospital District,Lockney,TX,34.1269537,-101.4409225,OpenStreetMap (Overpass)
Crosbyton Clinic Hospital,http://www.crosbytonclinichospital.com/,,+1 806 675 2382,,Crosbyton,TX,33.6607493,-101.2461246,OpenStreetMap (Overpass)
Ennis Regional Medical Center,https://www.ennisregional.com/,,+1 972 875 0900,,Ennis,TX,32.3066513,-96.6413359,OpenStreetMap (Overpass)
Medical City Weatherford,https://medicalcityweatherford.com/,,+1-682-582-1000,HCA,Weatherford,,32.7483807,-97.7854048,OpenStreetMap (Overpass)
Sunrise Canyon Hospital,http://www.lubbockmhmr.org/sch/,,+1 806 766 0310,StarCare Lubbock,Lubbock,,33.5734656,-101.8075045,OpenStreetMap (Overpass)
Lubbock Heart & Surgical Hospital,https://lubbockheart.com/home/,,+1 806 687 7777,Lubbock Heart Hospital,Lubbock,TX,33.6030912,-101.9158087,OpenStreetMap (Overpass)
University Medical Center,https://www.umchealthsystem.com/,,+1 806 775 8200,UMC Health System,Lubbock,TX,33.5892755,-101.8919991,OpenStreetMap (Overpass)
Covenant Medical Center,https://www.covenanthealth.org/contact-us/locations/covenant-medical-center/,,+1 806 725 0000,Covenant Health,Lubbock,TX,33.5764418,-101.8921137,OpenStreetMap (Overpass)
Covenant Children’s Hospital,https://www.covenantchildrens.org/,,+1 806 725 0000,Covenant Health,Lubbock,TX,33.5736767,-101.9015313,OpenStreetMap (Overpass)
Grace Medical Center,https://gracehealthsystem.com/locations/grace-medical-center/,,+1 806 788 4100,Grace Health System,Lubbock,TX,33.5495373,-101.8692783,OpenStreetMap (Overpass)
Brownfield Regional Medical Center,https://www.brownfield-rmc.org/,,+1 806 637 3551,,Brownfield,,33.1879422,-102.2675228,OpenStreetMap (Overpass)
Yoakum County Hospital,https://ych.us/,,+1 806 592 2121,,Denver City,TX,32.9687841,-102.8352223,OpenStreetMap (Overpass)
Medical Arts Hospital,https://www.medicalartshospital.org/,,+1 806 872 2183,,Lamesa,TX,32.749682,-101.967962,OpenStreetMap (Overpass)
Rankin County Hospital District,https://www.rankinhospital.org/,,+1 432 693 1200,,Rankin,,31.2329999,-101.9349548,OpenStreetMap (Overpass)
Iraan General Hospital District,https://www.igh-hospital.com/,,+1 432 639 2575,,Iraan,,30.9148773,-101.9066395,OpenStreetMap (Overpass)
Pecos County Memorial Hospital,https://www.pcmhfs.com/,,+1-432-336-2004,,Fort Stockton,,30.9056043,-102.8808408,OpenStreetMap (Overpass)
Reagan Hospital District,https://www.reaganhealth.com/,,+1 325 884 2561,,,,31.2031227,-101.4612186,OpenStreetMap (Overpass)
Oceans Behavioral Hospital Permian Basin,https://oceanshealthcare.com/permian-basin,,+1 432 561 5915,Oceans Healthcare,Midland,,31.9230112,-102.2223934,OpenStreetMap (Overpass)
Lillian M. Hudspeth Memorial Hospital,https://www.sonora-hospital.org/,,+1 325 387 2521,,Sonora,TX,30.5637656,-100.634665,OpenStreetMap (Overpass)
Kimble Hospital,https://www.kimblehospital.org/,,+1 325-446-3321,,Junction,TX,30.4986846,-99.7806738,OpenStreetMap (Overpass)
Concho County Hospital,http://conchocountyhospital.com/index.php,,+1 325 869 5911,,Eden,,31.2213736,-99.8480925,OpenStreetMap (Overpass)
San Angelo Community Medical Center,https://www.sacmc.com/,,+1 325 949 9511,,San Angelo,TX,31.4177946,-100.4699962,OpenStreetMap (Overpass)
Shannon Medical Center Saint John's Campus,https://www.shannonhealth.com/,,+1 325 659 7100,Shannon Medical Center,San Angelo,TX,31.4719645,-100.4022584,OpenStreetMap (Overpass)
Coleman County Medical Center,https://www.colemancountymc.com/,,+1 325 625 2135,,Coleman,,31.8286077,-99.4257599,OpenStreetMap (Overpass)
Mitchell County Hospital,https://www.mitchellcountyhospital.com/,,+1 325 728 3431,,Colorado City,TX,32.4065509,-100.875953,OpenStreetMap (Overpass)
Cogdell Memorial Hospital,https://www.cogdellhospital.com/,,+1 325 573 6374,,Snyder,TX,32.6878023,-100.9173953,OpenStreetMap (Overpass)
Hamlin Memorial Hospital,http://www.hamlinhealth.org/,,+1 325 576 3646,,Hamlin,,32.8856137,-100.1350245,OpenStreetMap (Overpass)
Stonewall Memorial Hospital,https://www.stonewallhospital.org/,,+1 940 989 3551,,Aspermont,,33.1506331,-100.2291673,OpenStreetMap (Overpass)
Haskell Memorial Hospital,https://www.haskellmemorialhospital.com/,,+1 940 864 2621,,Haskell,,33.1572765,-99.7444331,OpenStreetMap (Overpass)
Hardeman County Memorial Hospital,http://www.hcmhosp.com/,,+1 940 663 2795,,Quanah,,34.2965428,-99.7416235,OpenStreetMap (Overpass)
Chillicothe Hospital,http://www.chillhd.org/,,+1 940 852 5131,,Chillicothe,,34.2549782,-99.5157581,OpenStreetMap (Overpass)
Electra Memorial Hospital,https://www.electrahospital.com/,,+1 940 495 3981,,Electra,TX,34.0183828,-98.9247326,OpenStreetMap (Overpass)
Kell West Regional Hospital,https://www.kellwest.com/,,+1 940 692 5888,,Wichita Falls,TX,33.8732015,-98.5806549,OpenStreetMap (Overpass)
Promise Hospital of Wichita Falls,https://www.promise-wichitafalls.com/,,+1 940 720 6633,,Wichita Falls,TX,33.9027171,-98.4994858,OpenStreetMap (Overpass)
United Regional Health Care System,https://www.unitedregional.org/,,+1 940 764 7000,United Regional Health Care System,Wichita Falls,TX,33.9028951,-98.5011743,OpenStreetMap (Overpass)
Clay County Memorial Hospital,https://www.ccmhospital.com/,,+1 940 538 5621,,Henrietta,,33.8143471,-98.1984589,OpenStreetMap (Overpass)
Nocona General Hospital,https://noconageneral.com/,,+1 940 825 3235,,Nocona,,33.7776036,-97.7324398,OpenStreetMap (Overpass)
Muenster Memorial Hospital,https://muensterhospital.com/,,+1 940 759 2271,,Muenster,,33.6535125,-97.3807043,OpenStreetMap (Overpass)
North Texas Medical Center,https://www.ntmconline.net/,,+1 940 665 1751,,Gainesville,,33.6442976,-97.1625254,OpenStreetMap (Overpass)
Central Hospital of Bowie,http://www.bowiehospital.com/,,+1 940 872 1126,,Bowie,,33.5622949,-97.834176,OpenStreetMap (Overpass)
Wise Health System,https://www.wisehealthsystem.com/,,+1 940 627 5921,,Decatur,TX,33.217393,-97.5973865,OpenStreetMap (Overpass)
Texas Health Harris Methodist Hospital Azle,https://www.texashealth.org/azle/,,+1-817-444-8600,Texas Health,Azle,,32.8802235,-97.5330082,OpenStreetMap (Overpass)
Olney Hamilton Hospital,https://olneyhamiltonhospital.com/,,+1 940 564 5521,,Olney,TX,33.3692693,-98.7645178,OpenStreetMap (Overpass)
Stephens Memorial Hospital,https://www.smhtx.com/,,+1-254-559-2241,,Breckenridge,,32.753894,-98.8871174,OpenStreetMap (Overpass)
Eastland Memorial Hospital,https://www.eastlandmemorial.com/,,+1 254 629 2601,,Eastland,TX,32.3998362,-98.8211326,OpenStreetMap (Overpass)
Comanche County Medical Center,https://www.comanchecmc.org/,,+1 254 879 4900,,Comanche,,31.9848919,-98.5614865,OpenStreetMap (Overpass)
Palo Pinto General Hospital,https://www.ppgh.com/,,+1-940-325-7891,,Mineral Wells,TX,32.7994727,-98.1450373,OpenStreetMap (Overpass)
Lake Granbury Medical Center,https://www.lakegranburymedicalcenter.com/,,+1 817 573 2273,,Granbury,,32.4327923,-97.8037128,OpenStreetMap (Overpass)
Glen Rose Medical Center,https://www.glenrosemedicalcenter.com/,,+1-254-897-2215,,Glen Rose,TX,32.2421857,-97.7468157,OpenStreetMap (Overpass)
Hamilton General Hospital,http://hamiltonhospital.org/,,+1 254 386 1600,Hamilton Healthcare System,Hamilton,TX,31.704007,-98.1140138,OpenStreetMap (Overpass)
Coryell Memorial Healthcare System,http://www.cmhos.org/,,+1 254 865 8251,,Gatesville,TX,31.4352775,-97.7796855,OpenStreetMap (Overpass)
Carl R. Darnall Army Medical Center,https://www.crdamc.amedd.army.mil/,,+1 254 288 8000,,Fort Hood,,31.1274313,-97.7766037,OpenStreetMap (Overpass)
Metroplex Health System,http://www.mplex.org/,,+1 254 526 7523,Advent Health,Killeen,TX,31.1128456,-97.801846,OpenStreetMap (Overpass)
Baylor Scott & White Medical Center – Llano,https://www.bswhealth.com/about/community-involvement/community-health-dashboards/?hcn=%2Ftiles%2Findex%2Fdisplay%3Falias%3DLlanopage%26hcnembedredirect_%3D1,,+1 325 247 5040,Baylor Scott & White Health,Llano,,30.7428651,-98.6776757,OpenStreetMap (Overpass)
Baylor Scott & White Medical Center – Marble Falls,https://www.bswhealth.com/locations/marble-falls,,+1 830 201 8000,Baylor Scott & White Health,Marble Falls,TX,30.5130103,-98.3041003,OpenStreetMap (Overpass)
Hill Country Memorial Hospital,https://hillcountrymemorial.org/,,+1 830 997 4353,,Fredericksburg,TX,30.2622318,-98.881985,OpenStreetMap (Overpass)
Peterson Regional Medical Center,https://www.petersonhealth.com/,,+1 830 896 4200,,Kerrville,TX,30.043746,-99.1528063,OpenStreetMap (Overpass)
Wilford Hall Ambulatory Surgical Center,https://www.59mdw.af.mil/,,+1 210 292 7412,United States Air Force,Joint Base San Antonio-Lackland,,29.3994081,-98.6224517,OpenStreetMap (Overpass)
Texas Diabetes Institute,https://www.universityhealthsystem.com/services/diabetes,,+1 210 358 7000,University Health System,San Antonio,,29.4219011,-98.5288576,OpenStreetMap (Overpass)
Methodist Surgery Ambulatory Hospital,https://sahealth.com/locations/methodistambulatory/,,+1 210 575 5000,HCA,San Antonio,TX,29.5272831,-98.5951549,OpenStreetMap (Overpass)
LifeCare Hospitals of San Antonio,https://www.lifecarehealthpartners.com/region/sanantonio,,+1 210 690 7000,Lifecare Health Partners,San Antonio,TX,29.5268969,-98.5896308,OpenStreetMap (Overpass)
Northeast Methodist Hospital,https://sahealth.com/locations/northeastmethodist/,,+1 210 757 7000,HCA,Live Oak,TX,29.5528519,-98.3481744,OpenStreetMap (Overpass)
North Central Baptist Hospital,https://www.baptisthealthsystem.com/our-locations/north-central-baptist-hospital,,+1 210 297 4000,TH Medical,San Antonio,,29.6206755,-98.4914044,OpenStreetMap (Overpass)
Christus Santa Rosa Hospital,https://www.christushealth.org/santa-rosa/san-marcos/,,+1 512 353 8979,AdventHealth,San Marcos,TX,29.8525285,-97.9454944,OpenStreetMap (Overpass)
PAM Specialty Hospital of Luling,https://postacutemedical.com/facilities/find-facility/specialty-hospitals/PAM-Specialty-Hospital-Luling,,+1 830 875 8400,Post Acute Medical,Luling,TX,29.674071,-97.6547737,OpenStreetMap (Overpass)
Seton Edgar B. Davis Hospital,https://www.seton.net/locations/edgar-davis/,,+1 830 875 7000,Seton Healthcare Family,Luling,TX,29.6731458,-97.6546464,OpenStreetMap (Overpass)
Lavaca Medical Center,https://www.lavacamedcen.com/,,+1 361 798 3671,,Hallettsville,,29.4572406,-96.9382218,OpenStreetMap (Overpass)
Yoakum Community Hospital,https://yoakumhospital.org/,,+1 361 293 2321,,Yoakum,,29.3071729,-97.1295771,OpenStreetMap (Overpass)
Cuero Regional Hospital,https://cueroregionalhospital.org/,,+1 361 275 6191,Cuero Regional Hospital,Cuero,,29.1121198,-97.2832221,OpenStreetMap (Overpass)
PAM Rehabilitation Hospital of Victoria,https://postacutemedical.com/facilities/find-facility/rehabilitation-hospitals/pam-rehabilitation-hospital-victoria,,+1 361 220 7803,Post Acute Medical,Victoria,TX,28.8558118,-97.0227541,OpenStreetMap (Overpass)
PAM Specialty Hospital of Victoria North,http://www.warmsprings.org/our-facilities/hospitals/warm-springs-specialty-hospital-victoria/,,+1 361 576 6200,Post Acute Medical,Victoria,TX,28.8549778,-97.0218046,OpenStreetMap (Overpass)
DeTar Hospital North,https://www.detar.com/,,+1 361 573 6100,DeTar Health System,Victoria,TX,28.8544809,-97.0195234,OpenStreetMap (Overpass)
Memorial Medical Center,https://www.mmcportlavaca.com/,,+1 361 552 6713,,Port Lavaca,,28.620376,-96.632254,OpenStreetMap (Overpass)
Matagorda Regional Medical Center,https://www.matagordaregional.org/,,+1 979 245 6383,,Bay City,,28.9809216,-95.9925753,OpenStreetMap (Overpass)
Sweeny Community Hospital,https://www.sweenyhospital.org/,,+1 979 548 1500,,Sweeny,,29.0476502,-95.6917749,OpenStreetMap (Overpass)
CHI Saint Luke's Health Brazosport,http://www.brazosportregional.org/,,+1 979 297 4411,CHI Saint Luke's Health,Lake Jackson,TX,29.0298994,-95.4524897,OpenStreetMap (Overpass)
Rice Medical Center,http://www.ricemedicalcenter.net/,,+1 979 234 5571,,Eagle Lake,,29.5874692,-96.3451276,OpenStreetMap (Overpass)
Columbus Community Hospital,http://www.columbusch.com/,,+1 979 732 2371,,Columbus,,29.6949443,-96.5427536,OpenStreetMap (Overpass)
Saint Mark's Medical Center,https://www.smmctx.org/,,+1 979 242 2200,,La Grange,,29.9354675,-96.8756913,OpenStreetMap (Overpass)
Seton Smithville Regional Hospital,https://www.seton.net/locations/seton-smithville-regional-hospital/,,+1 512 237 3214,Seton Healthcare Family,Smithville,,30.004424,-97.1364329,OpenStreetMap (Overpass)
Austin Oaks Hospital,https://austinoakshospital.com/,,+1 512 440 4800,,Austin,,30.2112238,-97.7921497,OpenStreetMap (Overpass)
Arise Austin Medical Center,https://www.arisemedicalcenter.com/,,+1 512 314 3800,Arise Healthcare,Austin,,30.2706156,-97.7957265,OpenStreetMap (Overpass)
Westlake Medical Center,https://www.westlakemedical.com,,+1-512-327-0000,,Austin,,30.2958683,-97.8250604,OpenStreetMap (Overpass)
HealthSouth Rehabilitation Hospital of Austin,http://www.healthsouthaustin.com/,,+1 512 730 4800,Encompass Health,Austin,,30.2257776,-97.7663147,OpenStreetMap (Overpass)
Seton Shoal Creek Hospital,https://www.seton.net/locations/shoal-creek/,,+1 512 324 2000,Seton Healthcare Family,Austin,TX,30.3059651,-97.7485705,OpenStreetMap (Overpass)
Seton Medical Center Austin,https://www.seton.net/locations/smc/,,+1 512 324 1000,Seton Healthcare Family,Austin,TX,30.3051405,-97.7462692,OpenStreetMap (Overpass)
Cross Creek Hospital,https://www.crosscreekhospital.com/,,+1 512 549 8021,,Austin,,30.3383637,-97.6773513,OpenStreetMap (Overpass)
Ascension Seton Northwest Hospital,https://www.seton.net/locations/northwest/,,+1 512 324 6000,Ascension,Austin,,30.4052045,-97.743115,OpenStreetMap (Overpass)
Cedar Park Medical Center,https://www.cedarparkregional.com/,,+1 512 528 7000,,Cedar Park,TX,30.5320976,-97.8117031,OpenStreetMap (Overpass)
Saint David's Round Rock Medical Center,https://stdavids.com/location/st-davids-round-rock-medical-center,,+1 512 341 1000,HCA,Round Rock,,30.510256,-97.7145709,OpenStreetMap (Overpass)
Saint David's Georgetown Hospital,https://stdavids.com/location/st-davids-georgetown-hospital,,+1 512 943 3000,HCA,Georgetown,,30.6266251,-97.6885235,OpenStreetMap (Overpass)
Baylor Scott & White Medical Center - Temple,https://www.bswhealth.com/locations/temple,,+1 254 724 2111,Baylor Scott & White Health,Temple,TX,31.0781215,-97.3631224,OpenStreetMap (Overpass)
Olin E. Teague Veterans Medical Center,https://www.centraltexas.va.gov/,,+1 254-778-4811,Veterans Health Administration,Temple,,31.0775843,-97.3453225,OpenStreetMap (Overpass)
Cameron Hospital,http://lrhealthcare.com/locations/cameron-hospital,,+1 254 605 1300,Little River Healthcare,Cameron,,30.8578101,-96.9774637,OpenStreetMap (Overpass)
Baylor Scott & White Medical Center – Brenham,https://www.bswhealth.com/locations/brenham,,+1-979-337-5000,Baylor Scott & White Health,Brenham,,30.1451802,-96.3996394,OpenStreetMap (Overpass)
CHI Saint Joseph Health Bellville Hospital,https://www.chistjoseph.org/locations/chi-st-joseph-health-bellville-hospital,,+1 979 413 7400,CHI Saint Joseph Health,Bellville,,29.9537772,-96.2604569,OpenStreetMap (Overpass)
CHI Saint Joseph Health Madison Hospital,https://www.chistjoseph.org/locations/chi-st-joseph-health-madison-hospital,,+1 936 348 2631,CHI Saint Joseph Health,Madison,,30.9423882,-95.91113,OpenStreetMap (Overpass)
Huntsville Memorial Hospital,https://www.huntsvillememorial.com/,,+1 936 291 3411,,Huntsville,TX,30.6984009,-95.5589305,OpenStreetMap (Overpass)
CHI Sainit Luke's Health-Memorial Livingston,https://www.chistlukeshealthmemorial.org/centers/livingston/,,+1 936 329 8700,CHI Saint Luke’s Health,Livingston,,30.7305523,-94.9394694,OpenStreetMap (Overpass)
Tyler County Hospital,https://www.tchospital.us/,,+1 409 283 8141,,Woodville,,30.7758836,-94.4278295,OpenStreetMap (Overpass)
CHRISTUS Southeast Texas - Jasper Memorial,https://www.christushealth.org/southeast-texas/jasper,,+1 409 384 5461,CHRISTUS Health,Jasper,,30.9080391,-94.0095873,OpenStreetMap (Overpass)
"Baptist Hospitals of Southeast Texas, Orange Campus",https://www.bhset.net/About-Us/Our-Facilities/Orange.aspx,,+1 409 883 9361,Baptist Hospitals of Southeast Texas,Orange,,30.0999315,-93.7669641,OpenStreetMap (Overpass)
Mid Jefferson Extended Care Hospital,https://www.midjeffextendedcare.com/,,+1 409 726 8700,Mid Jefferson Hospital,Nederland,,29.955899,-93.9865767,OpenStreetMap (Overpass)
CHRISTUS Southeast Texas - Saint Elizabeth,https://www.christushealth.org/southeast-texas/st-elizabeth,,+1 409 892 7171,CHRISTUS Health,,,30.0875774,-94.1321227,OpenStreetMap (Overpass)
PAM Rehabilitation Hospital of Beaumont,http://www.warmsprings.org/our-facilities/outpatient-rehabilitation/rehabilitation-hospital-beaumont/,,+1 409 835 0835,Post Acute Medical,Beaumont,TX,30.0775882,-94.1376214,OpenStreetMap (Overpass)
Texas Emergency Hospital,https://www.clevelandemergency.com/texas-rural-hospital,,+1 281 592 5400,Cleveland Emergency Hospital System,Cleveland,,30.3418824,-95.0854694,OpenStreetMap (Overpass)
Liberty - Dayton Regional Medical Center,https://libertydaytonrmc.com/,,+1 936 336 7316,,Liberty,,30.0689212,-94.7988396,OpenStreetMap (Overpass)
Bayside Community Hospital,https://www.chambershealth.org/html/bayside_hospital.html,,+1 409 267 3143,Chambers Health,Anahuac,,29.7526112,-94.6867557,OpenStreetMap (Overpass)
Mainland Medical Center,https://mainlandmedical.com/,,+1 409 938 5000,HCA,Texas City,TX,29.3934862,-94.9865925,OpenStreetMap (Overpass)
Kindred Hospital (Bay Area),https://www.kindredhealthcare.com/locations/transitional-care-hospitals/kindred-hospital-bay-area,,+1 281 991 5463,Kindred Healthcare,Pasadena,,29.6375112,-95.1609215,OpenStreetMap (Overpass)
CHI Saint Luke’s Health - Patients Medical Center,https://www.chistlukeshealth.org/pmc,,+1 713 948 7000,CHI Saint Luke’s Health,Pasadena,,29.6410245,-95.1615116,OpenStreetMap (Overpass)
Bayshore Medical Center,https://bayshoremedical.com/,,+1 713 359 2000,HCA,Pasadena,,29.6615547,-95.183852,OpenStreetMap (Overpass)
Pine Valley Specialty Hospital,http://www.pinevalleyspecialtyhospital.com/,,+1 713 640 2400,Concord Healthcare Group,Houston,TX,29.6940458,-95.3160198,OpenStreetMap (Overpass)
Quentin Mease Hospital,https://www.harrishealth.org/locations-hh/Pages/quentin-mease.aspx,,+1 713 873 3700,Harris Health,Houston,TX,29.711557,-95.3595028,OpenStreetMap (Overpass)
Park Plaza Hospital,https://www.parkplazahospital.com/,,+1 713 527 5000,HCA,Houston,TX,29.7234328,-95.3873693,OpenStreetMap (Overpass)
Baylor College of Medicine McNair Campus,https://www.stlukeshealth.org/locations/baylor-st-lukes-medical-center-mcnair,,+1 832-354-1000,St Lukes Health,Houston,TX,29.6995696,-95.3943125,OpenStreetMap (Overpass)
Michael E. DeBakey VA Medical Center,https://www.houston.va.gov/,,+1 713 791 1414,Veterans Health Administration,Houston,TX,29.7021663,-95.3889117,OpenStreetMap (Overpass)
Sun Behavioral Houston,https://sunhouston.com/,,+1 713 796 2273,,Houston,TX,29.6926913,-95.3985009,OpenStreetMap (Overpass)
Texas Orthopedic Hospital,https://texasorthopedic.com/,,+1 713 799 8600,HCA,Houston,TX,29.7001799,-95.4090954,OpenStreetMap (Overpass)
Kindred Hospital Sugar Land,https://www.kindredhealthcare.com/locations/transitional-care-hospitals/kindred-hospital-sugar-land,,+1 281 275 6000,Kindred Healthcare,Sugar Land,,29.6003738,-95.6381228,OpenStreetMap (Overpass)
CHI Saint Luke's Health–Sugar Land Hospital,https://www.chistlukeshealth.org/sugarlandhospital,,+1 281 637 7000,Catholic Health Initiatives,Sugar Land,,29.6050776,-95.6197682,OpenStreetMap (Overpass)
OakBend Medical Center,https://www.oakbendmedcenter.org/,,+1 281 341 3000,,Richmond,,29.5767532,-95.7704187,OpenStreetMap (Overpass)
Memorial Hermann Katy Hospital,https://www.memorialhermann.org/locations/katy/,,+1 281 644 7000,Memorial Hermann,Katy,TX,29.7874262,-95.7847678,OpenStreetMap (Overpass)
Texas Children's Hospital West Campus,https://www.texaschildrens.org/departments/texas-childrens-hospital-west-campus,,+1 832 227 1000,Texas Children's Hospital,Houston,TX,29.7873137,-95.6920738,OpenStreetMap (Overpass)
Houston Methodist West Hospital,https://www.houstonmethodist.org/locations/katy-west/,,+1 832 522 5522,Houston Methodist,Houston,TX,29.7872389,-95.6980549,OpenStreetMap (Overpass)
Houston Methodist Saint Catherine Hospital,https://www.houstonmethodist.org/locations/long-term-acute-care/st-catherine-katy/,,+1 832 522 7550,Houston Methodist,Katy,,29.7770471,-95.7158739,OpenStreetMap (Overpass)
West Houston Medical Center,https://hcahoustonhealthcare.com/locations/west/,,+1 281 558 3444,Hospital Corporation of America,Houston,TX,29.7286809,-95.5944382,OpenStreetMap (Overpass)
Memorial Hermann Southwest Hospital,https://www.memorialhermann.org/locations/southwest/,,+1 713 456 5000,Memorial Hermann,Houston,,29.6938465,-95.5224822,OpenStreetMap (Overpass)
Houston Behavioral Healthcare Hospital,https://www.houstonbehavioralhealth.com/,,+1 832 834 7710,,Houston,TX,29.8238538,-95.5467686,OpenStreetMap (Overpass)
Kindred Hospital The Heights,https://www.kindredhealthcare.com/locations/transitional-care-hospitals/kindred-hospital-the-heights,,+1 832 673 4200,Kindred Healthcare,,,29.8091808,-95.4308779,OpenStreetMap (Overpass)
Lyndon B. Johnson General Hospital,https://www.harrishealth.org/locations-hh/Pages/lbj.aspx,,+1 713 566 5100,Harris Health,Houston,TX,29.8116507,-95.3130613,OpenStreetMap (Overpass)
HealthSouth Rehabilitation Hospital of Humble,http://www.healthsouthhumble.com/,,+1 281 446 6148,HealthSouth Corporation,Houston,,29.9935335,-95.2768831,OpenStreetMap (Overpass)
Memorial Hermann Northeast Hospital,https://www.memorialhermann.org/locations/northeast/,,+1-281-540-7700,Memorial Hermann,Humble,TX,29.9956861,-95.2762948,OpenStreetMap (Overpass)
Kindred Hospital Spring,https://www.kindredhealthcare.com/locations/transitional-care-hospitals/kindred-hospital-spring,,+1 832 249 2700,Kindred Healthcare,Houston,,30.0253493,-95.436007,OpenStreetMap (Overpass)
Cypress Creek Hospital,https://www.cypresscreekhospital.com/,,+1 281 586 7600,,Houston,,30.0247202,-95.4448608,OpenStreetMap (Overpass)
Houston Northwest Medical Center,https://hnmc.com/,,+1 281 440 1000,HCA,Houston,,30.0208524,-95.442864,OpenStreetMap (Overpass)
Kindred Hospital (Houston Northwest),https://www.kindredhealthcare.com/locations/transitional-care-hospitals/kindred-hospital-houston-northwest,,+1 281 517 1000,Kindred Healthcare,Houston,TX,29.9244303,-95.5879839,OpenStreetMap (Overpass)
Cypress Fairbanks Medical Center,https://cyfairhospital.com/,,+1 281 890 4285,HCA,Houston,TX,29.9273318,-95.5899409,OpenStreetMap (Overpass)
HCA Houston North Cypress,https://hcahoustonhealthcare.com/locations/north-cypress/,,+1 832 912 3500,,Cypress,,29.9266589,-95.6316425,OpenStreetMap (Overpass)
Memorial Hermann Cypress Hospital,https://www.memorialhermann.org/locations/cypress/,,+1 346 231 4000,Memorial Hermann,Cypress,,29.9868588,-95.7325558,OpenStreetMap (Overpass)
Houston Methodist The Woodlands Hospital,https://www.houstonmethodist.org/locations/the-woodlands/,,+1 936 270 2000,Houston Methodist,The Woodlands,TX,30.2056737,-95.4518733,OpenStreetMap (Overpass)
Conroe Regional Medical Center,https://conroeregional.com/,,+1 936 539 1111,HCA,Conroe,TX,30.2843098,-95.4675195,OpenStreetMap (Overpass)
Nacogdoches Medical Center,https://www.nacmedicalcenter.com/,,+1 866 697 5864,TH Medical,Nacogdoches,,31.6531203,-94.6537661,OpenStreetMap (Overpass)
Nacogdoches Memorial Hospital,https://www.nacmem.org/,,+1 936 564 4611,Nacogdoches Memorial Health,Nacogdoches,TX,31.6125524,-94.6487879,OpenStreetMap (Overpass)
CHRISTUS Saint Michael Hospital-Atlanta,https://www.christushealth.org/st-michael-atlanta,,+1 903 799 3000,CHRISTUS Health,Atlanta,TX,33.1054593,-94.1637218,OpenStreetMap (Overpass)
Christus Saint Michael,https://www.christushealth.org/st-michael,,+1 903 614 1000,CHRISTUS Health,Texarkana,TX,33.4640907,-94.0754838,OpenStreetMap (Overpass)
Christus Saint Michael Rehabilitation Hospital,https://www.christushealth.org/st-michael/services-treatments/rehabilitation,,+1 903 614 4000,CHRISTUS Health,Texarkana,TX,33.4653404,-94.0726388,OpenStreetMap (Overpass)
Clarksville General Hospital,https://www.clarksvillegeneral.com/,,+1 469 344 9993,,Clarksville,TX,33.6117747,-95.0993967,OpenStreetMap (Overpass)
Titus Regional Medical Center,https://www.titusregional.com/,,+1 903 577 6000,,Mount Pleasant,TX,33.1763734,-94.9717954,OpenStreetMap (Overpass)
Texas General Hospital,https://texasgeneralhospital.com/,,+1 903 717 3300,,Grand Saline,,32.6797129,-95.7227654,OpenStreetMap (Overpass)
University of Texas Health Science Center at Tyler,https://www.uthct.edu/,,+1 903 877 7000,UT Health,Tyler,TX,32.4263987,-95.2141069,OpenStreetMap (Overpass)
Baylor Scott & White Texas Spine & Joint Hospital,https://tsjh.org/,,+1 903 525 3300,BSW Health,Tyler,,32.3296551,-95.2985041,OpenStreetMap (Overpass)
CHRISTUS Mother Frances Hospital - Tyler,https://www.tmfhc.org/,,+1 903 593 8441,CHRISTUS Trinity Mother Frances Health System,Tyler,,32.3432099,-95.290864,OpenStreetMap (Overpass)
Freestone Medical Center,https://www.freestonemc.com/,,+1 903 389 2121,,Fairfield,,31.7255093,-96.1709743,OpenStreetMap (Overpass)
Parkview Regional Hospital,https://www.parkviewregional.com/,,+1 254 562 5332,,Mexia,,31.6752644,-96.4806608,OpenStreetMap (Overpass)
Falls Community Hospital and Clinic,http://www.fallshospital.com/,,+1 254 803 3561,,Marlin,,31.3068813,-96.8940772,OpenStreetMap (Overpass)
DePaul Center,https://www.providence.net/locations/providence-depaul-center/,,+1 254 776 5970,Providence Healthcare Network,Waco,TX,31.5110477,-97.1983717,OpenStreetMap (Overpass)
Ascension Providence,https://healthcare.ascension.org/en/locations/texas/txwac/waco-ascension-providence,,+1 254 751 4000,Ascension,Waco,TX,31.5144272,-97.1994111,OpenStreetMap (Overpass)
Hill Regional Hospital,https://www.hillregionalhospital.com/,,+1 254 580 8500,,Hillsboro,TX,32.0128999,-97.0992265,OpenStreetMap (Overpass)
Texas Health Harris Methodist Hospital Cleburne,https://www.texashealth.org/cleburne/,,+1 817 641 2551,Texas Health,Cleburne,TX,32.3321179,-97.4386631,OpenStreetMap (Overpass)
Navarro Regional Hospital,https://www.navarrohospital.com/,,+1 903 654 6800,,Corsicana,,32.0837654,-96.503579,OpenStreetMap (Overpass)
Texas Health Presbyterian Hospital Kaufman,https://www.texashealth.org/kaufman/,,+1 972 932 7200,Texas Health,Kaufman,TX,32.5920664,-96.3181258,OpenStreetMap (Overpass)
CHRISTUS Mother Frances Hospital - Sulphur Springs,https://www.tmfhc.org/maps-and-locations/christus-mother-frances-hospital---sulphur-springs/,,+1 903 885 7671,CHRISTUS Trinity Mother Frances Health System,Sulphur Springs,,33.1572888,-95.5997014,OpenStreetMap (Overpass)
Texoma Medical Center,https://www.texomamedicalcenter.net/,,+1-903-416-4000,Universal Health Services,Denison,TX,33.710552,-96.5848849,OpenStreetMap (Overpass)
Wilson N. Jones Regional Medical Center,https://www.wnj.org/,,+1 903 870 4611,,Sherman,TX,33.6360891,-96.624143,OpenStreetMap (Overpass)
Texas Health Presbyterian Hospital Denton,https://www.texashealth.org/denton/,,+1 940 898 7000,Texas Health,Denton,,33.2172908,-97.1654784,OpenStreetMap (Overpass)
Medical City Denton,https://medicalcitydenton.com/,,+1 940 384 3535,HCA,Denton,TX,33.1767504,-97.0911249,OpenStreetMap (Overpass)
Texas Health Presbyterian Hospital Flower Mound,https://www.texashealthflowermound.com/,,+1 469 322 7000,Texas Health,Flower Mound,,33.045283,-97.0671057,OpenStreetMap (Overpass)
Medical City Lewisville,https://medicalcitylewisville.com/,,+1 972 420 1000,HCA,Lewisville,TX,33.0444589,-97.0050154,OpenStreetMap (Overpass)
Baylor Scott & White Medical Center – Grapevine,https://www.bswhealth.com/locations/grapevine,,+1 817 481 1588,Baylor Scott & White Health,Grapevine,TX,32.9339224,-97.0943007,OpenStreetMap (Overpass)
Medical City North Hills,https://medicalcitynorthhills.com/,,+1 817 255 1000,HCA,North Richland Hills,,32.8277937,-97.2139192,OpenStreetMap (Overpass)
Cook Children's Northeast,https://cookchildrens.org/northeast-hospital/,,+1 817 605 2500,Cook Children's Health Care System,Hurst,,32.8635328,-97.1854435,OpenStreetMap (Overpass)
Texas Health Harris Methodist Hospital Alliance,https://www.texashealth.org/alliance/,,+1 682 212 2000,Texas Health,Fort Worth,,32.9312952,-97.3099852,OpenStreetMap (Overpass)
Kindred Hospital - Tarrant County,https://www.kindredhealthcare.com/locations/transitional-care-hospitals/kindred-hospital-tarrant-county-fort-worth-southwest,,+1-817-346-0094,Kindred Healthcare,Fort Worth,,32.6659935,-97.4242258,OpenStreetMap (Overpass)
HealthSouth Rehabilitation Hospital of Fort Worth,http://www.healthsouthfortworth.com/,,+1 817 870 2336,HealthSouth Corporation,Fort Worth,TX,32.7478367,-97.3395002,OpenStreetMap (Overpass)
Medical City Fort Worth,https://medicalcityfortworth.com/,,+1 817 877 5292,HCA,Fort Worth,,32.7352568,-97.3451476,OpenStreetMap (Overpass)
Cook Children's Medical Center,https://www.cookchildrens.org/medical-center/,,+1 682 885 4000,Cook Children's Health Care System,Fort Worth,TX,32.7365644,-97.3417519,OpenStreetMap (Overpass)
Baylor Surgical Hospital at Fort Worth,https://bshfw.com/,,+1 682 703 5600,,Fort Worth,,32.7269784,-97.3468924,OpenStreetMap (Overpass)
Texas Health Arlington Memorial Hospital,https://www.texashealth.org/arlington/,,+1 817 960 6100,Texas Health,Arlington,TX,32.7485594,-97.1157713,OpenStreetMap (Overpass)
Millwood Hospital,https://www.millwoodhospital.com/,,+1 817 261 3121,,Arlington,TX,32.7509058,-97.1124989,OpenStreetMap (Overpass)
USMD Hospital at Arlington,https://www.usmdarlington.com/,,+1 817 472 3400,,Arlington,,32.6797715,-97.1180188,OpenStreetMap (Overpass)
Medical City Arlington,https://medicalcityarlington.com/,,+1 682 509 6200,HCA,Arlington,,32.6924339,-97.1129397,OpenStreetMap (Overpass)
Methodist Rehabilitation Hospital,https://www.methodist-rehab.com/,,+1 972 708 8600,,Dallas,,32.646535,-96.8710265,OpenStreetMap (Overpass)
Methodist Dallas Medical Center,https://www.methodisthealthsystem.org/methodist-dallas-medical-center/,,+1 214 947 8181,Methodist Health System,Dallas,TX,32.7613266,-96.8251192,OpenStreetMap (Overpass)
Baylor Surgical Hospital at Las Colinas,https://baylorlascolinas.com/,,+1 209 868 4000,,Irving,TX,32.9117801,-96.9518961,OpenStreetMap (Overpass)
Our Children's House,https://www.childrens.com/specialties-services/och,,+1 214 867 6700,Children's Health,Dallas,,32.8260914,-96.8697373,OpenStreetMap (Overpass)
Medical City Plano,https://medicalcityplano.com/,,+1 972 596 6800,HCA,Plano,,33.0217847,-96.7667225,OpenStreetMap (Overpass)
Methodist Campus for Continuing Care,https://www.methodisthealthsystem.org/our-locations/methodist-campus-for-continuing-care/,,+1 469 204 1000,Methodist Health System,Richardson,,32.9741577,-96.7268542,OpenStreetMap (Overpass)
Baylor Scott & White Medical Center - Plano,https://www.bswhealth.com/locations/plano,,+1-469-814-2000,Baylor Scott & White Health,Plano,,33.0141943,-96.7916687,OpenStreetMap (Overpass)
Methodist Richardson Medical Center,https://www.methodisthealthsystem.org/methodist-richardson-medical-center/,,+1 469-204-1000,Methodist Health System,Richardson,,32.9957675,-96.6672742,OpenStreetMap (Overpass)
Baylor Scott & White Medical Center – Lake Pointe,https://www.bswhealth.com/locations/lake-pointe/,,+1 972 412 2273,Baylor Scott & White Health,Rowlett,,32.9176156,-96.5079993,OpenStreetMap (Overpass)
Dallas Regional Medical Center,https://www.dallasregionalmedicalcenter.com/,,+1 214 320 7000,,Mesquite,TX,32.7785285,-96.6011618,OpenStreetMap (Overpass)
Sundance Behavioral Hospital,https://sunbhc.com/,,+1 469 440 5566,Sundance Behavioral Healthcare,Garland,,32.9136572,-96.6696855,OpenStreetMap (Overpass)
Medical City Green Oaks Hospital,https://medicalcitygreenoaks.com/,,+1 972 991 9504,HCA,Dallas,,32.9128378,-96.7717218,OpenStreetMap (Overpass)
Texas Scottish Rite Hospital for Children,https://scottishritehospital.org/,,+1 214 559 5000,,Dallas,TX,32.8021131,-96.8145813,OpenStreetMap (Overpass)
Parkland Memorial Hospital,https://www.parklandhospital.com/phhs/home.aspx,,+1 214 590 8000,Parkland Health & Hospital System,Dallas,,32.8131073,-96.8355255,OpenStreetMap (Overpass)
Promise Hospital of Dallas,https://www.promise-dallas.com/,,+1 214 637 0000,Promise Healthcare,Dallas,,32.8328231,-96.8615225,OpenStreetMap (Overpass)
Children’s Medical Center Plano,https://www.childrens.com/location-landing/locations-and-directions/childrens-health-plano-campus/childrens-health-plano,,+1 469 303 7000,Children's Health,Plano,,33.0792186,-96.8017133,OpenStreetMap (Overpass)
Texas Center for Proton Therapy,https://www.texascenterforprotontherapy.com/,,,,Irving,TX,32.8996337,-96.9686727,OpenStreetMap (Overpass)
Stamford Memorial Hospital,https://www.stamfordhosp.com/,,+1 325 773 2725,,Stamford,,32.9275514,-99.7830463,OpenStreetMap (Overpass)
Houston Methodist Hospital,https://www.houstonmethodist.org/,,+1 713 790 3311,,Houston,TX,29.7109151,-95.3994383,OpenStreetMap (Overpass)
Childress Regional Medical Center,http://childresshospital.com/,,+1 940 937 6371,,Childress,TX,34.4394148,-100.2273756,OpenStreetMap (Overpass)
The Medical Center of Southeast Texas,https://www.medicalcentersetexas.org/,,+1 409 724 7389,Steward Health Care,Port Arthur,TX,29.9355628,-93.9887452,OpenStreetMap (Overpass)
Abilene Regional Medical Center,https://www.abileneregional.com/,,+1 325 428 1000,,Abilene,TX,32.3747401,-99.7436473,OpenStreetMap (Overpass)
Brownwood Regional Medical Center,https://www.brmc-cares.com/,,+1 325 646 8541,,Brownwood,,31.6774957,-98.993522,OpenStreetMap (Overpass)
Starr County Memorial Hospital,https://www.starrcountyhospital.com/,,+1 956 487 5561,,Rio Grande City,,26.3767728,-98.8585719,OpenStreetMap (Overpass)
Texas Health Huguley Hospital Fort Worth South,https://www.texashealthhuguley.org/,,+1 817 293 9110,AdventHealth,Burleson,TX,32.5861726,-97.3165781,OpenStreetMap (Overpass)
Baylor Scott & White Medical Center – Frisco,https://baylorfrisco.com/,,+1 214 407 5000,Baylor Scott & White Health,Frisco,,33.1052773,-96.8373343,OpenStreetMap (Overpass)
Memorial Hermann Surgical Hospital First Colony,https://memorialhermannfirstcolony.com/,,+1 281 243 1000,,Sugar Land,,29.5899833,-95.6360178,OpenStreetMap (Overpass)
Behavioral Hospital at Renaissance,http://www.dhr-rgv.com/Healthcare-Services/Behavioral-Hospital#,,+1 956 362 4357,Doctors Hospital at Renaissance,Edinburg,,26.2531714,-98.2011276,OpenStreetMap (Overpass)
The Women's Hospital at Renaissance,https://www.dhr-rgv.com/Healthcare-Services/Womens-Hospital-at-Renaissance.aspx,,+1 956 362 2229,Doctors Hospital at Renaissance,Edinburg,,26.2526686,-98.2029287,OpenStreetMap (Overpass)
Doctors Hospital at Renaissance,https://www.dhr-rgv.com/,,+1 956 362 8677,Doctors Hospital at Renaissance,Edinburg,,26.2537247,-98.2059154,OpenStreetMap (Overpass)
Foundation Surgical Hospital of El Paso,http://www.foundationhospitals.com/elpaso/,,+1 915 598 4240,Foundation HealthCare,El Paso,TX,31.7343985,-106.3001208,OpenStreetMap (Overpass)
Baylor Medical Center at Trophy Club,https://www.baylortrophyclub.com/,,+1 817 837 4600,Baylor Scott & White Health,Trophy Club,,32.9887316,-97.1753852,OpenStreetMap (Overpass)
Texas Health Harris Methodist Hospital Southlake,https://www.texashealthsouthlake.com/,,+1 817 748 8700,Texas Health,Southlake,,32.9398586,-97.1281153,OpenStreetMap (Overpass)
Texas Institute for Surgery At Texas Health Presbyterian Dallas,https://www.texasinstituteforsurgery.com/,,+1 214 647 5300,Texas Institute for Surgery,Dallas,,32.876935,-96.7620517,OpenStreetMap (Overpass)
Limestone Medical Center,https://www.groesbeckhospital.com/,,+1 254 729 3281,,Groesbeck,,31.5326978,-96.5313238,OpenStreetMap (Overpass)
Schleicher County Medical Center,http://www.scmc.us/,,+1 325 853 2507,,Eldorado,,30.8706366,-100.5917537,OpenStreetMap (Overpass)
McCamey County Hospital District,http://www.mccameyhospitaldistrict.org/,,+1 432 652 8626,McCamey County Hospital District,McCamey,,31.1141421,-102.2108236,OpenStreetMap (Overpass)
Fisher County Hospital,https://www.fishercountyhospital.com/,,+1 325 735 2256,Fisher County Hospital District,Rotan,TX,32.8341122,-100.436258,OpenStreetMap (Overpass)
Winkler County Memorial Hospital,https://www.wcmh.net/,,+1 432 586 5864,,Kermit,TX,31.8494648,-103.090663,OpenStreetMap (Overpass)
CHI Saint Joseph Health Grimes Hospital,https://www.chistjoseph.org/locations/chi-st-joseph-health-grimes-hospital,,+1 936 825 6585,CHI Saint Joseph Health,Navasota,TX,30.3926933,-96.0777837,OpenStreetMap (Overpass)
Riceland Medical Center,https://www.ricelandhealthcare.com/riceland-medical-center/,,+1 409 296 6000,Riceland Healthcare,Winnie,TX,29.8197421,-94.3763727,OpenStreetMap (Overpass)
Martin County Hospital,https://www.martincountyhospital.org/,,+1 432 607 3200,Martin County Hospital District,Stanton,TX,32.1398199,-101.7874571,OpenStreetMap (Overpass)
Culberson Hospital,https://www.culbersonhospital.org/,,+1-432-283-2760,,Van Horn,TX,31.0492539,-104.8271817,OpenStreetMap (Overpass)
Heart Of Texas Memorial Hospital,https://www.heartoftexashealthcare.org/,,+1 325 597 2901,,Brady,,31.1176187,-99.3467554,OpenStreetMap (Overpass)
Lynn County Hospital District,http://lchdhealthcare.org/,,+1 806 998 4533,Lynn County Hospital District,Tahoka,TX,33.1674996,-101.8161334,OpenStreetMap (Overpass)
Sabine County Hospital,https://www.sabinecountyhospital.com/,,+1 409 787 3300,,Hemphill,,31.3339019,-93.8631856,OpenStreetMap (Overpass)
Ascension Seton Highland Lakes Hospital,https://www.seton.net/locations/highland-lakes/,,+1 512 715 3000,Ascension,Burnet,TX,30.732996,-98.2363121,OpenStreetMap (Overpass)
Moore County Memorial Hospital,https://mchd.net/,,+1 806 935 7171,Moore County Hospital District,Dumas,TX,35.8646137,-101.9709028,OpenStreetMap (Overpass)
Nexus Children's Hospital,https://www.nhsltd.com/services/childrens-hospital/,,+1 714 289 2400,Nexus Health Systems,Houston,,29.7325693,-95.5797136,OpenStreetMap (Overpass)
Memorial Hermann Surgical Hospital Kingwood,http://memorialhermannkingwood.com/,,+1 281 312 4000,,Kingwood,,30.0480345,-95.259077,OpenStreetMap (Overpass)
Houston Physicians' Hospital,https://www.houstonphysicianshospital.com/,,+1 281 557 5620,,Webster,TX,29.5341257,-95.1260072,OpenStreetMap (Overpass)
Seton Medical Center Williamson,https://www.seton.net/locations/seton-medical-center-williamson/,,+1 512 324 4000,Ascension,Round Rock,,30.567133,-97.6503887,OpenStreetMap (Overpass)
Texas Health Presbyterian Hospital Rockwall,https://www.texashealthrockwall.com/,,+1 469 698 1000,Texas Health,Rockwall,,32.884824,-96.4658791,OpenStreetMap (Overpass)
Foundation Surgical Hospital of San Antonio,https://www.fshsanantonio.com/,,+1 210 478 5400,,San Antonio,TX,29.5306275,-98.5904101,OpenStreetMap (Overpass)
Baylor Scott & White Me​dical Center – Sunnyvale,https://www.bswhealth.com/locations/sunnyvale,,+1 972 892 3000,Baylor Scott & White Health,Sunnyvale,TX,32.7786649,-96.5684777,OpenStreetMap (Overpass)
South Texas Surgical Hospital,https://southtexassurgicalhospital.com/,,+1 361 993 2000,,Corpus Christi,,27.6858165,-97.3748195,OpenStreetMap (Overpass)
Baylor Orthopedic and Spine Hospital,http://baylorarlington.com/,,+1 855 416 7846,Baylor Scott & White Health,Arlington,,32.6830825,-97.1170941,OpenStreetMap (Overpass)
Methodist McKinney Hospital,https://methodistmckinneyhospital.com/,,+1 972 569 2700,,McKinney,,33.1768369,-96.7227625,OpenStreetMap (Overpass)
Baylor Scott & White Surgical Hospital at Sherman,https://baylorsherman.com/,,+1 903 870 0999,Baylor Scott & White Health,Sherman,TX,33.6766891,-96.6019169,OpenStreetMap (Overpass)
Seton Medical Center Harker Heights,https://setonharkerheights.net/,,+1 254 690 0900,,Harker Heights,TX,31.0728237,-97.6828991,OpenStreetMap (Overpass)
Memorial Hermann Tomball Hospital,https://www.memorialhermann.org/tomball/,,+1 281 516 0911,Memorial Hermann,,,30.0370243,-95.6062071,OpenStreetMap (Overpass)
